{"180":{"title":"180","actor_1":"Siddarth","locations":[{"title":"555 Market St.","lat":37.78989,"lng":-122.39993},{"title":"Epic Roasthouse (399 Embarcadero)","lat":37.7850421,"lng":-122.4092295},{"title":"Mason & California Streets (Nob Hill)","lat":39.3600586,"lng":-84.309939},{"title":"Justin Herman Plaza","lat":"","lng":""},{"title":"200 block Market Street","lat":37.7931329,"lng":-122.3965602},{"title":"City Hall","lat":37.7793176,"lng":-122.4191405},{"title":"Polk & Larkin Streets","lat":41.3670014,"lng":-79.9292233},{"title":"Randall Musuem","lat":37.7643243,"lng":-122.4384077}],"release_year":"2011","production_company":"SPI Cinemas","actor_2":"Nithya Menon","writer":"Umarji Anuradha, Jayendra, Aarthi Sriram, & Suba ","director":"Jayendra","actor_3":"Priya Anand","link":"180"},"24-hours-on-craigslist":{"title":"24 Hours on Craigslist","actor_1":"Craig Newmark","release_year":"2005","production_company":"Yerba Buena Productions","distributor":"Zealot Pictures","writer":"N\/A","director":"Michael Ferris Gibson","link":"24-hours-on-craigslist","locations":[{"title":null,"lat":"","lng":""}]},"48-hours":{"title":"48 Hours","actor_1":"Nick Nolte","release_year":"1982","production_company":"Paramount Pictures","distributor":"Paramount Pictures","actor_2":"Eddie Murphy","writer":"Walter Hill","director":"Walter Hill","link":"48-hours","locations":[{"title":null,"lat":"","lng":""}]},"50-first-dates":{"title":"50 First Dates","actor_1":"Adam Sandler","locations":[{"title":"Rainforest Caf\u00e9 (145 Jefferson Street)","lat":37.8082369,"lng":-122.4157395}],"release_year":"2004","production_company":"Columbia Pictures Corporation","distributor":"Columbia Pictures","actor_2":"Drew Barrymore","writer":"George Wing","director":"Peter Segal","actor_3":"Rob Schneider","link":"50-first-dates"},"about-a-boy":{"title":"About a Boy","actor_1":"David Walton","locations":[{"title":"Powell from Bush and Sutter","lat":37.7749295,"lng":-122.4194155},{"title":"Broderick from Fulton to McAlister","lat":37.7749295,"lng":-122.4194155},{"title":"Crissy Field","lat":37.8039069,"lng":-122.4640618}],"release_year":"2014","production_company":"NBC Studios","distributor":"National Broadcasting Company","actor_2":"Minnie Driver","writer":"Jason Katims","director":"Mark J. Kunerth","link":"about-a-boy"},"after-the-thin-man":{"title":"After the Thin Man","actor_1":"William Powell","locations":[{"title":"Coit Tower","lat":37.8023949,"lng":-122.4058222}],"fun_facts":"The Tower was funded by a gift bequeathed by Lillie Hitchcock Coit, a socialite who reportedly liked to chase fires. Though the tower resembles a firehose nozzle, it was not designed this way.","release_year":"1936","production_company":"Metro-Goldwyn Mayer","distributor":"Metro-Goldwyn Mayer","actor_2":"Myrna Loy","writer":"Frances Goodrich","director":"W.S. Van Dyke","actor_3":"James Stewart","link":"after-the-thin-man"},"a-jitney-elopement":{"title":"A Jitney Elopement","actor_1":"Charles Chaplin","locations":[{"title":"Golden Gate Park","lat":37.7694208,"lng":-122.4862138},{"title":"20th and Folsom Streets","lat":37.758895,"lng":-122.4147242}],"fun_facts":"During San Francisco's Gold Rush era, the Park was part of an area designated as the \"Great Sand Waste\". ","release_year":"1915","production_company":"The Essanay Film Manufacturing Company","distributor":"General Film Company","writer":"Charles Chaplin","director":"Charles Chaplin","link":"a-jitney-elopement"},"alcatraz":{"title":"Alcatraz","actor_1":"Sarah Jones","locations":[{"title":"Leavenworth from Filbert & Francisco St","lat":47.5962326,"lng":-120.6614765},{"title":"Chestnut St. from Larkin to Columbus","lat":37.7749295,"lng":-122.4194155},{"title":"Francisco St from Larkin to Polk","lat":37.7749295,"lng":-122.4194155},{"title":"Broadway from Mason to Taylor","lat":37.7749295,"lng":-122.4194155},{"title":"Taylor St. from Broadway to Filbert","lat":37.7749295,"lng":-122.4194155},{"title":"Filbert St. from Jones to Mason","lat":37.7749295,"lng":-122.4194155}],"release_year":"2012","production_company":"Bonanza Productions Inc.","distributor":"Warner Bros. Television","actor_2":"Elizabeth Sarnoff","writer":"Steven Lilien","director":"J.J. Abrams","actor_3":"Bryan Wynbrandt","link":"alcatraz"},"alexander's-ragtime-band":{"title":"Alexander's Ragtime Band","actor_1":"Tyrone Power","locations":[{"title":"San Francisco Bay","lat":37.6909682,"lng":-122.3107517},{"title":"Fairmont Hotel (950 Mason Street, Nob Hill)","lat":37.7923392,"lng":-122.4105175},{"title":"Cliff House (1090 Point Lobos Avenue)","lat":37.7784327,"lng":-122.5139671}],"release_year":"1938","production_company":"Twentieth Century Fox Film Corporation","distributor":"Twentieth Century Fox Film Corporation","actor_2":"Alice Faye","writer":"Kathryn Scola","director":"Henry King","link":"alexander's-ragtime-band"},"all-about-eve":{"title":"All About Eve","actor_1":"Bette Davis","locations":[{"title":"Curran Theater (445 Geary Street)","lat":37.7867729,"lng":-122.410581}],"fun_facts":"Called the Shubert Theatre in the film. ","release_year":"1950","production_company":"Twentieth Century Fox Film Corp.","distributor":"Twentieth Century Fox Film Corp.","actor_2":"Anne Baxter","writer":"Joseph L. Mankiewicz","director":"Joseph L. Mankiewicz","link":"all-about-eve"},"american-graffiti":{"title":"American Graffiti","actor_1":"Richard Dryfuss","locations":[{"title":"Mel's Drive-In (Corner of Van Ness & Mission Street, Mission District)","lat":37.7749295,"lng":-122.4194155},{"title":"3355 Geary Blvd.","lat":37.781171,"lng":-122.45488}],"fun_facts":"This restaurant location was demolished; however another Mel's was reopened in 1986 on 3355 Geary Blvd. ","release_year":"1973","production_company":"Universal Pictures","distributor":"Universal Pictures'","writer":"George Lucas","director":"George Lucas","link":"american-graffiti"},"american-yearbook":{"title":"American Yearbook","actor_1":"Nick Tagas","release_year":"2004","production_company":"All Planet Studios","distributor":"N\/A","actor_2":"Jon Carlo Alvarez","writer":"Brian Ging","director":"Brian Ging","actor_3":"Giovannie Pico","link":"american-yearbook","locations":[{"title":null,"lat":"","lng":""}]},"a-night-full-of-rain":{"title":"A Night Full of Rain","actor_1":"Candice Bergen","locations":[{"title":"San Francisco Chronicle (901 Mission Street at 15th Street)","lat":37.7822587,"lng":-122.4064166},{"title":"Fairmont Hotel (950 Mason Street, Nob Hill)","lat":37.7923392,"lng":-122.4105175},{"title":"Embarcadero Freeway","lat":37.7560529,"lng":-122.3924235},{"title":"Broadway (North Beach)","lat":37.7959341,"lng":-122.4219451}],"fun_facts":"The San Francisco Zodiac Killer of the late 1960s sent his notes and letters to the Chronicle's offices.","release_year":"1978","production_company":"Liberty Film","distributor":"Warner Bros. Pictures","actor_2":"Giancarlo Gianni","writer":"Lina Wertmuller","director":"Lina Wertmuller","link":"a-night-full-of-rain"},"another-48-hours":{"title":"Another 48 Hours","actor_1":"Eddie Murphy","release_year":"1990","production_company":"Eddie Murphy Productions","distributor":"Paramount Pictures","actor_2":"Nick Nolte","writer":"Walter Hill","director":"Walter Hill","link":"another-48-hours","locations":[{"title":null,"lat":"","lng":""}]},"around-the-fire":{"title":"Around the Fire","actor_1":"Tara Reid","locations":[{"title":"Ocean Beach","lat":37.7593749,"lng":-122.5108057}],"fun_facts":"On Jan. 25, 1878, the King Philip ship crashed in Ocean Beach. Occassionally, the ship's wreckage may be found on the beach-- most recently it was seen in 2007. ","release_year":"1998","production_company":"Paradigm Studio","distributor":"Ardustry Home Entertainment","writer":"John Comerford","director":"John Jacobsen","link":"around-the-fire"},"a-smile-like-yours":{"title":"A Smile Like Yours","actor_1":"Greg Kinnear","locations":[{"title":"75 California Street","lat":37.7935488,"lng":-122.3973319}],"release_year":"1997","production_company":"Paramount Pictures","distributor":"Paramount Pictures","actor_2":"Lauren Holly","writer":"Keith Samples & Kevin Meyer","director":"Keith Samples","actor_3":"Joan Cusack","link":"a-smile-like-yours"},"a-smile-like-yours-":{"title":"A Smile Like Yours ","actor_1":"Greg Kinnear","locations":[{"title":"San Francisco International Airport","lat":37.615223,"lng":-122.389979},{"title":"Hills Brothers Plaza (Embarcadero at Harrison Street)","lat":37.7749295,"lng":-122.4194155},{"title":"Grace Cathedral Episcopal Church (1100 California Street)","lat":37.7918261,"lng":-122.4131913}],"fun_facts":"SFO has a museum dedicated to aviation history. ","release_year":"1997","production_company":"Paramount Pictures","distributor":"Paramount Pictures","actor_2":"Lauren Holly","writer":"Keith Samples & Kevin Meyer","director":"Keith Samples","actor_3":"Joan Cusack","link":"a-smile-like-yours-"},"attack-of-the-killer-tomatoes":{"title":"Attack of the Killer Tomatoes","actor_1":"David Miller","locations":[{"title":"Hyde Street Cable Car","lat":37.7749295,"lng":-122.4194155}],"fun_facts":"SF Cable Cars are the only moving National Historical Landmark.","release_year":"1978","production_company":"Four Square Productions","distributor":"NAI Entertainment","writer":"John DeBello","director":"John DeBello","link":"attack-of-the-killer-tomatoes"},"a-view-to-a-kill":{"title":"A View to a Kill","actor_1":"Roger Moore","locations":[{"title":"Van Ness Avenue","lat":37.7913102,"lng":-122.422592},{"title":"Taylor and Jefferson Streets (Fisherman's Wharf)","lat":37.8082428,"lng":-122.4158057},{"title":"Potrero Hill","lat":37.7604929,"lng":-122.400869},{"title":"Port of San Francisco ","lat":37.7969874,"lng":-122.3951684},{"title":"Lefty O' Doul Drawbridge\/ 3rd Street Bridge (3rd Street, China Basin)","lat":37.7659631,"lng":-122.3891193},{"title":"Golden Gate Bridge","lat":37.8198772,"lng":-122.4789386},{"title":"Embarcadero Freeway","lat":37.7560529,"lng":-122.3924235},{"title":"City Hall","lat":37.7793176,"lng":-122.4191405},{"title":"City Hall","lat":37.7793176,"lng":-122.4191405},{"title":"Chinatown","lat":37.7941378,"lng":-122.4077914},{"title":"Burger Island (901 3rd Street, China Basin)","lat":37.7775523,"lng":-122.3910986}],"release_year":"1985","production_company":"Metro-Goldwyn Mayer","distributor":"MGM\/UA Entertainemnt Company","actor_2":"Christopher Walken","writer":"Richard Maibaum","director":"John Glen","link":"a-view-to-a-kill"},"babies":{"title":"Babies","actor_1":"Bayar","release_year":"2010","production_company":"Canal+","distributor":"Focus Features","actor_2":"Hattie","writer":"Thomas Balmes","director":"Thomas Balmes","actor_3":"Mari","link":"babies","locations":[{"title":null,"lat":"","lng":""}]},"barbary-coast":{"title":"Barbary Coast","actor_1":"Mariam Hopkins","release_year":"1935","production_company":"The Samuel Goldwyn Company","distributor":"United Artists","actor_2":"Edward G. Robinson","writer":"Ben Hecht","director":"Howard Hawks","link":"barbary-coast","locations":[{"title":null,"lat":"","lng":""}]},"basic-instinct":{"title":"Basic Instinct","actor_1":"Michael Douglas","locations":[{"title":"Yuerba Buena Center for the Arts","lat":37.7695879,"lng":-122.4331211},{"title":"Transbay Terminal (Mission Street at 1st Street)","lat":37.789859,"lng":-122.393376},{"title":"Tosca Caf\u00e9 (242 Columbus Avenue)","lat":37.7976266,"lng":-122.4058736},{"title":"Steinhart Aquarium (California Academy of Sciences, Golden Gate Park)","lat":37.7698125,"lng":-122.4661917},{"title":"Raw Hide II (280 Seventh Street)","lat":37.776817,"lng":-122.408527},{"title":"Pier 7 (The Embarcadero)","lat":37.8001077,"lng":-122.3943664},{"title":"Kearney Street (Telegraph Hill)","lat":37.6684918,"lng":-122.4209896},{"title":"Hall of Justice (850 Bryant Street)","lat":37.7754356,"lng":-122.403939},{"title":"Gibb Street (Chinatown)","lat":37.7960524,"lng":-122.4042824},{"title":"Chinatown","lat":37.7941378,"lng":-122.4077914},{"title":"2930 Vallejo Street","lat":37.794164,"lng":-122.445704},{"title":"2104 Broadway","lat":37.7946575,"lng":-122.4320463},{"title":"1158-70 Montgomery Street","lat":37.799987,"lng":-122.403972}],"release_year":"1992","production_company":"Carolco Pictures","distributor":"TriStar Pictures","actor_2":"Sharon Stone","writer":"Joe Eszterhas","director":"Paul Verhoeven","actor_3":"George Dzundza","link":"basic-instinct"},"beaches":{"title":"Beaches","actor_1":"Bette Midler","release_year":"1988","production_company":"Silver Screen Partners IV","distributor":"Columbia Broadcasting System","actor_2":"Barbara Hershey","writer":"Mary Agnes Donoghue","director":"Garry Marshall","link":"beaches","locations":[{"title":null,"lat":"","lng":""}]},"bedazzled":{"title":"Bedazzled","actor_1":"Brendan Fraser","locations":[{"title":"Washington Square Park (Filbert, between Stockton and Powell)","lat":37.8009182,"lng":-122.410111},{"title":"Vaillancourt Fountain (Justin Herman Plaza)","lat":37.7749295,"lng":-122.4194155},{"title":"Montgomery & Market Streets","lat":32.3668052,"lng":-86.2999689},{"title":"City Hall","lat":37.7793176,"lng":-122.4191405},{"title":"1155 Filbert Street at Hyde","lat":37.7999164,"lng":-122.4183705}],"release_year":"2000","production_company":"Twentieth Century Fox Film Corp.","distributor":"Twentieth Century Fox Film Corp.","actor_2":"Elizabeth Hurley","writer":"Harold Ramis","director":"Harold Ramis","link":"bedazzled"},"bee-season":{"title":"Bee Season","actor_1":"Richard Gere","release_year":"2005","production_company":"Bee Season Productions","distributor":"Fox Searchlight Pictures","actor_2":"Juliette Binoche","writer":"David Siegel","director":"Scott McGehee","link":"bee-season","locations":[{"title":null,"lat":"","lng":""}]},"bicentennial-man":{"title":"Bicentennial Man","actor_1":"Robin Williams","locations":[{"title":"Treasure Island","lat":37.8235515,"lng":-122.370648},{"title":"Postcard Row, Alamo Square, Hayes Valley","lat":37.7759073,"lng":-122.4245247},{"title":"Grace Cathedral Episcopal Church (1100 California Street)","lat":37.7918261,"lng":-122.4131913},{"title":"Golden Gate Bridge","lat":37.8198772,"lng":-122.4789386},{"title":"City Hall","lat":37.7793176,"lng":-122.4191405}],"fun_facts":"An artificial island, Treasure Island was created for the 1939 Golden Gate International Exposition, and is named after the novel by Robert Louis Stevenson, a one-time San Francisco resident.","release_year":"1999","production_company":"1492 Pictures","distributor":"Buena Vista Pictures","writer":"Nicholas Kazan","director":"Chris Columbus","link":"bicentennial-man"},"big-eyes":{"title":"Big Eyes","actor_1":"Amy Adams","locations":[{"title":"Palace of Fine Arts","lat":37.801456,"lng":-122.448053},{"title":"1101 Filbert St. ","lat":37.8001558,"lng":-122.4178041},{"title":"Saints Peter & Paul Church","lat":25.759822,"lng":-80.213382},{"title":"Green St. & Grant Ave.","lat":36.9690527,"lng":-89.0918755},{"title":"Nobles Alley","lat":37.8009686,"lng":-122.4075668},{"title":"Caffe Trieste","lat":37.7749295,"lng":-122.4194155},{"title":"Filbert St. & Leavenworth","lat":37.7994987,"lng":-122.424127},{"title":"Pine St. & Grant","lat":31.4478847,"lng":-81.9240784},{"title":"Way Faire Inn on Leidsdorff","lat":37.7749295,"lng":-122.4194155},{"title":"Harry's Bar on Fillmore","lat":37.786997,"lng":-122.4368151}],"release_year":"2014","production_company":"Blink & Wink Productions","distributor":"Weinstein Company","actor_2":"Krysten Ritter","writer":"Scott Alexander","director":"Tim Burton","actor_3":"Christoph Waltz","link":"big-eyes"},"big-sur":{"title":"Big Sur","actor_1":"Josh Lucas","locations":[{"title":"Tosca Caf\u00e9 (242 Columbus Avenue, North Beach)","lat":37.7976266,"lng":-122.4058736}],"release_year":"2012","production_company":"3311 Productions","actor_2":"Kate Bosworth","writer":"Jack Kerouac & Michael Polish","director":"Micael Polish","actor_3":"Stana Katic","link":"big-sur"},"big-touble-in-little-china":{"title":"Big Touble in Little China","actor_1":"Kurt Russell","release_year":"1986","production_company":"Twentieth Century Fox Film Corporation","distributor":"Twentieth Century Fox Film Corporation","actor_2":"Kim Catrall","writer":"Gary Goldman","director":"John Carpenter","link":"big-touble-in-little-china","locations":[{"title":null,"lat":"","lng":""}]},"birdman-of-alcatraz":{"title":"Birdman of Alcatraz","actor_1":"Bert Lancaster","locations":[{"title":"Pier 43 1\/2","lat":37.7973451,"lng":-122.3952518},{"title":"Alcatraz Island","lat":37.8269775,"lng":-122.4229555}],"release_year":"1962","production_company":"Norma Productions","distributor":"United Artists","actor_2":"Karl Maden","writer":"Guy Trosper","director":"John Frankenheimer","link":"birdman-of-alcatraz"},"blue-jasmine":{"title":"Blue Jasmine","actor_1":"Cate Blanchett","locations":[{"title":"2898 Broadway","lat":37.793335,"lng":-122.44471},{"title":"Motel Capri","lat":"","lng":""},{"title":"Marina Green","lat":37.8066235,"lng":-122.4391137},{"title":"Ocean Beach at Lincoln","lat":37.7749295,"lng":-122.4194155},{"title":"Heald College","lat":37.7818115,"lng":-122.403822},{"title":"Marina Blvd from Leguna to Baker","lat":37.7749295,"lng":-122.4194155},{"title":"330 Santa Clara Ave.","lat":37.734209,"lng":-122.466499},{"title":"200 Post St. ","lat":37.78874,"lng":-122.4053011},{"title":"2179 48th Ave","lat":37.745553,"lng":-122.507258},{"title":"The Ramp Restaurant","lat":37.7749295,"lng":-122.4194155},{"title":"303-305 S. Van Ness","lat":37.7682683,"lng":-122.4176369},{"title":"3563 20th St.","lat":37.7585367,"lng":-122.4204073},{"title":"Taylor & Green St.","lat":42.240872,"lng":-83.2696509},{"title":"Grant & Washington St.","lat":47.1981147,"lng":-119.3732456},{"title":"2934 24th St.","lat":37.7529387,"lng":-122.4107722},{"title":"1138 Alabama St","lat":37.7536368,"lng":-122.4110882},{"title":"5546 Geary Ave","lat":37.780586,"lng":-122.4791515},{"title":"South Park","lat":37.7815501,"lng":-122.3940353},{"title":"2915 16th St.","lat":37.7651527,"lng":-122.4179706},{"title":"Trolly Car from Market and 11th","lat":37.7749295,"lng":-122.4194155},{"title":"Real Guitars","lat":37.7749295,"lng":-122.4194155},{"title":"Aub Zam Zam Bar","lat":37.7749295,"lng":-122.4194155},{"title":"790 Ulloa ","lat":37.7406777,"lng":-122.4648912},{"title":"SFO International Airport Terminal 3","lat":37.7749295,"lng":-122.4194155},{"title":"2178 Palou Ave.","lat":37.7406288,"lng":-122.4015231},{"title":"Jones & Pacific","lat":31.5343241,"lng":-89.1705998},{"title":"Pacific & Divisadero","lat":46.5180824,"lng":-123.8264512},{"title":"Lombard & Hyde","lat":41.8800296,"lng":-88.0078435}],"release_year":"2013","production_company":"Perdido Productions","distributor":"Sony Pictures Classics","actor_2":"Alec Baldwin","writer":"Woody Allen","director":"Woody Allen","actor_3":"Peter Sarsgaard","link":"blue-jasmine"},"boys-and-girls":{"title":"Boys and Girls","actor_1":"Freddie Prinze, Jr.","locations":[{"title":"St. Peter & Paul's Church (666 Filbert Street, Washington Square)","lat":37.8009182,"lng":-122.410111},{"title":"Lombard Street","lat":37.802139,"lng":-122.41874},{"title":"Golden Gate Bridge","lat":37.8198772,"lng":-122.4789386},{"title":"Fisherman's Wharf","lat":37.8079996,"lng":-122.4177434},{"title":"Ferry Building","lat":37.795923,"lng":-122.392052},{"title":"Coit Tower","lat":37.8023949,"lng":-122.4058222},{"title":"City Hall","lat":37.7793176,"lng":-122.4191405},{"title":"Chinatown","lat":37.7941378,"lng":-122.4077914},{"title":"Aquatic Park (Jefferson Street)","lat":37.8074647,"lng":-122.4208864},{"title":"Alcatraz Island","lat":37.8269775,"lng":-122.4229555},{"title":"628 Cole Street","lat":37.7690941,"lng":-122.4506087},{"title":"1122 Folsom Street","lat":37.7763896,"lng":-122.4086328}],"fun_facts":"Though Marilyn Monroe and Joe DiMaggio were not alllowed to be married at the Church (DiMaggio had married his first wife at the Church but was divorced), the couple returned to the steps of the Church for photos, following their City Hall nuptuals.","release_year":"2000","production_company":"Punch 21 Productions","distributor":"Dimension Films","actor_2":"Alyson Hannigan","writer":"The Drews","director":"Robert Iscove","link":"boys-and-girls"},"broken-a-modern-love-story-":{"title":"Broken-A Modern Love Story ","locations":[{"title":"Ina Coolbrith Park (1700 Taylor Street)","lat":37.7980458,"lng":-122.4137396},{"title":"0-100 block Halleck Street","lat":37.7937113,"lng":-122.4000974}],"release_year":"2010","production_company":"RKW Films","writer":"Ryan K. Whiting","director":"Ryan K. Whiting","link":"broken-a-modern-love-story-"},"bullitt":{"title":"Bullitt","actor_1":"Steve McQueen","locations":[{"title":"Taylor & Vallejo Streets (Russian Hill)","lat":42.240872,"lng":-83.2696509},{"title":"SF General Hospital Center (1001 Potrero Avenue, Potrero Hill)","lat":37.7563054,"lng":-122.4045441},{"title":"McClaren Park (Vistacon Valley)","lat":37.7196766,"lng":-122.4206972},{"title":"Mark Hopkins Hotel (999 California Street)","lat":37.7915787,"lng":-122.4104284},{"title":"Marina Green (Marina District)","lat":37.8066235,"lng":-122.4391137},{"title":"Mansell & University Streets (Vistacon Valley)","lat":50.712234,"lng":-2.4597899},{"title":"Larkin & Francisco Streets (Russian Hill)","lat":43.7228037,"lng":-84.2472152},{"title":"Larkin & Chestnut Streets (Russian Hill)","lat":43.7228037,"lng":-84.2472152},{"title":"Kennedy Hotel (226 Embarcadero at Howard Street)","lat":37.7549184,"lng":-122.4206175},{"title":"John Muir Drive (Lake Merced)","lat":37.7145909,"lng":-122.492148},{"title":"Intersection of York & Peralta (Bernal Heights)","lat":39.7264377,"lng":-76.8495704},{"title":"Filbert & Taylor Streets (Russian Hill)","lat":39.9421245,"lng":-79.8577023},{"title":"Enrico's Caf\u00e9 (504 Broadway)","lat":37.798165,"lng":-122.4056481},{"title":"Columbus & Lombard Streets (North Beach)","lat":39.9611755,"lng":-82.9987942},{"title":"Cesar Chavez & Mission Street (Mission)","lat":26.3034042,"lng":-98.1152858},{"title":"Candlestick Park Exit, Highway 101","lat":37.8023318,"lng":-122.4496731},{"title":"Caf\u00e9 Cantata (2040 Union Street)","lat":37.7976826,"lng":-122.432994},{"title":"Brocklebank Apartments (1000 Mason Street)","lat":37.793087,"lng":-122.41047},{"title":"Bayshore Blvd near Cesar Chavez (Bayview)","lat":37.748038,"lng":-122.4132364},{"title":"Bay Bridge","lat":37.7998279,"lng":-122.3759478},{"title":"2700 Vallejo Street (Pacific Heights)","lat":37.794632,"lng":-122.442027},{"title":"20th & Vermont Streets (Potrero Hill)","lat":44.987411,"lng":-121.820992},{"title":"1153-57 Taylor Street","lat":37.7829257,"lng":-122.4109508}],"release_year":"1968","production_company":"Warner Brothers \/ Seven Arts\nSeven Arts","distributor":"Warner Brothers","actor_2":"Jacqueline Bisset","writer":"Alan R. Trustman","director":"Peter Yates","actor_3":"Don Harvey","link":"bullitt"},"burglar":{"title":"Burglar","actor_1":"Whoppi Goldberg","locations":[{"title":"Green Valley Restaurant (510 Green Street Near Grant)","lat":37.7749295,"lng":-122.4194155},{"title":"California Academy of Sciences (Golden Gate Park)","lat":37.7698646,"lng":-122.4660947},{"title":"1627 Haight Street","lat":37.7697077,"lng":-122.4492183},{"title":"1400 18th Street","lat":37.7627009,"lng":-122.3968332}],"release_year":"1987","production_company":"Warner Bros. Pictures","distributor":"Warner Bros. Pictures","actor_2":"Bobcat Goldwait","writer":"Joseph Loeb III","director":"Hugh Wilson","actor_3":"Luther Adler","link":"burglar"},"by-hook-or-by-crook":{"title":"By Hook or By Crook","actor_1":"Silas Howard","locations":[{"title":"The Lexington Club (3464 19th Street at Lexington)","lat":37.7604248,"lng":-122.420896},{"title":"Royan Hotel (405 Valencia Street, Mission District)","lat":37.766443,"lng":-122.4220305},{"title":"Department of Public Health (101 Grove Street at Polk, Civic Center)","lat":37.7782658,"lng":-122.4187097}],"release_year":"2001","production_company":"Steakhaus Productions","distributor":"Artistic License","writer":"Harriet Dodge & Silas Howard","director":"Harriet Dodge & Silas Howard","actor_3":"Luther Adler","link":"by-hook-or-by-crook"},"can't-stop-the-music":{"title":"Can't Stop the Music","locations":[{"title":"101 Henry Adams Place","lat":37.7681527,"lng":-122.4034569}],"release_year":"1980","production_company":"EMI Films","distributor":"Associated Film Distribution (AFD)","writer":"Allan Carr","director":"Nancy Walker","link":"can't-stop-the-music"},"casualties-of-war":{"title":"Casualties of War","actor_1":"Michael J. Fox","locations":[{"title":"Mission Delores Park (Mission District) via J-Church MUNI Train","lat":37.7749295,"lng":-122.4194155}],"fun_facts":"The two land plots that comprise the Park were used as a Jewish cemetary until 1894 when San Francisco prohibited all burials within city limits.The graves were moved to Colma, CA.","release_year":"1989","production_company":"Columbia Pictures Corporation","distributor":"Columbia Pictures","actor_2":"Sean Penn","writer":"Daniel Lang","director":"Brian DePalma","link":"casualties-of-war"},"chan-is-missing":{"title":"Chan is Missing","locations":[{"title":"Li Po (916 Grant Avenue at Washington, Chinatown)","lat":37.7954238,"lng":-122.4064344},{"title":"Golden Dragon Restaurant (816 Washington Street at Grant)","lat":37.795288,"lng":-122.406882}],"release_year":"1982","production_company":"New Yorker Films","distributor":"New Yorker Films","writer":"Wayne Wang","director":"Wayne Wang","link":"chan-is-missing"},"cherish":{"title":"Cherish","actor_1":"Brad Hunt","locations":[{"title":"387 Fair Oaks at 25th Street","lat":37.750608,"lng":-122.423581}],"release_year":"2002","production_company":"3 Ring Circus Films","distributor":"Fine Line Features","actor_2":"Robin Tunney","writer":"Finn Taylor","director":"Finn Taylor","actor_3":"Brian Cox","link":"cherish"},"chu-chu-and-the-philly-flash":{"title":"Chu Chu and the Philly Flash","actor_1":"Alan Arkin","locations":[{"title":"Transbay Terminal (Mission Street at 1st Street)","lat":37.789859,"lng":-122.393376},{"title":"Fairmont Hotel (950 Mason Street, Nob Hill)","lat":37.7923392,"lng":-122.4105175},{"title":"22nd and Carolina Streets (Potrero Hill)","lat":37.7572327,"lng":-122.3999821}],"fun_facts":"Built in 1939, the Terminal linked San Francisco, the East Bay, and Sacramento by rail for the first time.","release_year":"1981","production_company":"Melvin Simon Productions","distributor":"Columbia Broadcasting System (CBS)","actor_2":"Carol Burnett","writer":"Henry Barrow","director":"David Lowell Rich","link":"chu-chu-and-the-philly-flash"},"city-of-angels":{"title":"City of Angels","actor_1":"Nicholas Cage","locations":[{"title":"San Francisco Public Library Main Branch (100 Larkin Street)","lat":37.779159,"lng":-122.415808}],"release_year":"1998","production_company":"Atlas Entertainment","distributor":"Warner Bros. Pictures","actor_2":"Meg Ryan","writer":"Dana Stevens","director":"Brad Silberling","link":"city-of-angels"},"class-action":{"title":"Class Action","actor_1":"Gene Hackman","locations":[{"title":"Mission Delores (3321 16th Street, Mision District)","lat":37.7643873,"lng":-122.4268969},{"title":"City Hall","lat":37.7793176,"lng":-122.4191405},{"title":"Bix Restaurant (56 Gold Street)","lat":37.7969025,"lng":-122.4029599}],"fun_facts":"Mission Delores' official name is Mission San Francisco de Asis. It is the oldest building in San Francisco, built in 1791, and has survived two major earthquakes.","release_year":"1991","production_company":"Interscope Communications","distributor":"Twientieth Century Fox Film Corp.","actor_2":"Mary Elizabeth Mastrantonio","writer":"Carolyn Shelby","director":"Michael Apted","link":"class-action"},"common-threads:-stories-from-the-quilt":{"title":"Common Threads: Stories From the Quilt","actor_1":"Sara Lewinstein","locations":[{"title":"The Castro","lat":37.7609082,"lng":-122.4350043}],"fun_facts":"From 1910-1920 the Castro was called \"Little Scandinavia\" because of its high concentration of residents of Scandinavian ancestry.","release_year":"1989","production_company":"Home Box Office (HBO)","distributor":"Direct Cinema Limited","actor_2":"David Mandell","writer":"Jeffrey Friedman","director":"Rob Epstein","link":"common-threads:-stories-from-the-quilt"},"confessions-of-a-burning-man":{"title":"Confessions of a Burning Man","actor_1":"Kevin Epps","release_year":"2003","production_company":"Hotbed Media","distributor":"Windline Films","actor_2":"Anna Getty","writer":"N\/A","director":"Paul Barnett","link":"confessions-of-a-burning-man","locations":[{"title":null,"lat":"","lng":""}]},"copycat":{"title":"Copycat","actor_1":"Sigourney Weaver","locations":[{"title":"Twin Peaks","lat":37.7544066,"lng":-122.4476845},{"title":"Treasure Island","lat":37.8235515,"lng":-122.370648},{"title":"Sound Factory (1st and Harrison Streets)","lat":37.7859852,"lng":-122.3930673},{"title":"Java House (Pier 40, Embarcadero)","lat":37.7749295,"lng":-122.4194155},{"title":"Alta Plaza Park","lat":37.7911417,"lng":-122.4376241},{"title":"82 & 67 Rico Way (Marina District)","lat":30.4860747,"lng":55.6396687}],"fun_facts":"The 2nd highest point in SF after Mt. Davidson, Twin Peaks sit at the geographic center of SF. The native Ohlone people called the area \"called the area \u201cLos Pechos de la Chola\u201d or \"Breasts of the Indian Maiden,\" but in the 19th Century when America took over the area, it was renamed \"Twin Peaks\".","release_year":"1995","production_company":"Regency Enterprises","distributor":"Warner Bros. Pictures","actor_2":"Holly Hunter","writer":"Ann Biderman","director":"Jon Amiel","link":"copycat"},"crackers":{"title":"Crackers","actor_1":"Donald Sutherland","locations":[{"title":"La Rondalla (Valencia and 20th Streets)","lat":37.7749295,"lng":-122.4194155},{"title":"24th Street between Mission Street and Potrero Avenue","lat":37.7579142,"lng":-122.4067663}],"release_year":"1984","production_company":"Universal Pictures","distributor":"Universal Pictures","actor_2":"Sean Penn","writer":"Jeffrey Fiskin","director":"Louis Malle","link":"crackers"},"csi:-ny--episode-903":{"title":"CSI: NY- episode 903","actor_1":"Gary Sinise","locations":[{"title":"Palace of Fine Arts","lat":37.801456,"lng":-122.448053}],"release_year":"2012","production_company":"CBS Television Studios","distributor":"Columbia Broadcasting System","actor_2":"Sela Ward","writer":"Anthony E. Zuiker","director":"Vikki Williams","actor_3":"Carmine Giovinazzo","link":"csi:-ny--episode-903"},"dark-passage":{"title":"Dark Passage","actor_1":"Humphrey Bogart","locations":[{"title":"The Malloch Apartment Building (1360 Montgomery Street)","lat":37.8017938,"lng":-122.4043215},{"title":"Golden Gate Bridge","lat":37.8198772,"lng":-122.4789386},{"title":"Filbert Steps, Filbert Street","lat":37.7994987,"lng":-122.424127}],"release_year":"1947","production_company":"Warner Bros. Pictures","distributor":"Warner Bros. Pictures","actor_2":"Lauren Bacal","writer":"Delmer Daves & David Goodis","director":"Delmer Daves","actor_3":"Bruno Campos","link":"dark-passage"},"dawn-of-the-planet-of-the-apes":{"title":"Dawn of the Planet of the Apes","actor_1":"Gary Oldman","locations":[{"title":"California & Powell ","lat":36.778261,"lng":-119.4179324},{"title":"Columbus & Pacific Ave","lat":39.9611755,"lng":-82.9987942},{"title":"University Club","lat":37.7749295,"lng":-122.4194155},{"title":"Filbert St. from Hyde to Leavenworth","lat":37.7749295,"lng":-122.4194155},{"title":"Alioto Park","lat":37.7588666,"lng":-122.4181453},{"title":"City Hall","lat":37.7793176,"lng":-122.4191405},{"title":"California St from Mason to Kearny","lat":37.7749295,"lng":-122.4194155}],"release_year":"2014","production_company":"Fox Louisiana Productions, LLC","distributor":"Twentieth Century Fox","actor_2":"Keri Russell","writer":"Rick Jaffa","director":"Matt Reeves","actor_3":"Andy Serkis","link":"dawn-of-the-planet-of-the-apes"},"days-of-wine-and-roses":{"title":"Days of Wine and Roses","actor_1":"Jack Lemmon","release_year":"1962","production_company":"Warner Bros. Pictures","distributor":"Warner Bros. Pictures","actor_2":"Lee Remick","writer":"JP Miller","director":"Blake Edwards","actor_3":"Raven-Symone","link":"days-of-wine-and-roses","locations":[{"title":null,"lat":"","lng":""}]},"desperate-measures":{"title":"Desperate Measures","actor_1":"Michael Keaton","release_year":"1998","production_company":"Mandalay Entertainment","distributor":"TriStar Pictures","actor_2":"Andy Garcia","writer":"David Klass","director":"Barbet Schroeder","actor_3":"Raven-Symone","link":"desperate-measures","locations":[{"title":null,"lat":"","lng":""}]},"dim-sum:-a-little-bit-of-heart":{"title":"Dim Sum: A Little Bit of Heart","locations":[{"title":"San Francisco International Airport","lat":37.615223,"lng":-122.389979},{"title":"Li Po (916 Grant Avenue at Washington, Chinatown)","lat":37.7954238,"lng":-122.4064344},{"title":"Chinatown","lat":37.7941378,"lng":-122.4077914}],"fun_facts":"SFO has a museum dedicated to aviation history. ","release_year":"1986","production_company":"CIM","distributor":"Orion Classics","writer":"Terrel Seltzer","director":"Wayne Wang","actor_3":"Raven-Symone","link":"dim-sum:-a-little-bit-of-heart"},"dirty-harry":{"title":"Dirty Harry","actor_1":"Clint Eastwood","locations":[{"title":"Washington Square, North Beach","lat":37.8009182,"lng":-122.410111},{"title":"The Embarcadero","lat":37.7976769,"lng":-122.3943387},{"title":"St. Peter & Paul's Church (666 Filbert Street, Washington Square)","lat":37.8009182,"lng":-122.410111},{"title":"San Francisco Drydock (20th and Illinois Streets)","lat":37.7605687,"lng":-122.387575},{"title":"Portsmouth Square (Chinatown)","lat":37.7948871,"lng":-122.4052015},{"title":"Mt. Davidson Cross, Mt. Davidson","lat":37.737285,"lng":-122.4558767},{"title":"Mission Delores Park (Mission District)","lat":37.7597727,"lng":-122.427063},{"title":"Marina Green, Marina District","lat":37.8066235,"lng":-122.4391137},{"title":"Kezar Stadium, Golden Gate Park","lat":37.7667984,"lng":-122.456045},{"title":"Holiday Inn Select Downtown Hotel (750 Kearney Street)","lat":37.7951205,"lng":-122.4044887},{"title":"Hall of Justice (850 Bryant Street)","lat":37.7754356,"lng":-122.403939},{"title":"Forest Hill Station- MUNI","lat":37.76246,"lng":-122.435449},{"title":"Dante Building (1606 Stockton Street at Union)","lat":37.8004763,"lng":-122.409208},{"title":"California Hall (625 Polk Street, Van Ness\/Civic Center)","lat":37.7814657,"lng":-122.4206462},{"title":"Bank of America Building (555 California Street)","lat":37.7920903,"lng":-122.4036761}],"release_year":"1971","production_company":"The Malpaso Company","distributor":"Warner Brothers","writer":"Harry Julian Fink","director":"Don Siegel","link":"dirty-harry"},"d.o.a":{"title":"D.O.A","actor_1":"Edmond O'Brien","locations":[{"title":"Westin St. Francis Hotel (335 Powell Street)","lat":37.7878172,"lng":-122.408767},{"title":"Union Square","lat":37.7879938,"lng":-122.4074374},{"title":"The Embarcadero\/ Ferry Building","lat":37.795105,"lng":-122.393861},{"title":"Southern Pacific Memorial Hospital (1400 Fell Street)","lat":37.7734008,"lng":-122.4418679},{"title":"Powell & California Streets","lat":36.031667,"lng":-84.028056},{"title":"Market Street (from 6th- 4th Streets)","lat":37.773529,"lng":-122.4212726},{"title":"Market & Steuart Streets (Financial District)","lat":25.7742967,"lng":81.4088167},{"title":"Mark Hopkins Intercontinental Hotel (1 Nob Hill Circle)","lat":37.7914046,"lng":-122.4101888},{"title":"Chambord Apartments (1298 Sacramento Street at Jones)","lat":37.7924898,"lng":-122.4141357}],"fun_facts":"The hotel was originally supposed to be named the Crocker Hotel, after Charles Founder the railroad magnate who founded it. However, the hotel took the name the St. Francis after one of the earliest Gold Rush hotels. ","release_year":"1950","production_company":"Cardinal Pictures","distributor":"United Artists","actor_2":"Pamela Britton","writer":"Russell Rouse","director":"Rudolph Mate","link":"d.o.a"},"doctor-doolittle":{"title":"Doctor Doolittle","actor_1":"Eddie Murphy","locations":[{"title":"Webster Street","lat":37.787926,"lng":-122.4319622},{"title":"Telegraph Hill Blvd (Telegraph Hill)","lat":37.8027822,"lng":-122.4060027},{"title":"Larkin & Hyde Streets","lat":43.7228037,"lng":-84.2472152},{"title":"Gabbiano's Restaurant (Ferry Building)","lat":37.7749295,"lng":-122.4194155},{"title":"Coit Tower","lat":37.8023949,"lng":-122.4058222},{"title":"2107 Union Street","lat":37.7972773,"lng":-122.4340946},{"title":"2100 Green Street","lat":37.796589,"lng":-122.433981}],"release_year":"1998","production_company":"Twentieth Century Fox Film Cooperation","distributor":"Twentieth Century Fox Film Cooperation","actor_2":"Ossie Davis","writer":"Nat Mauldin","director":"Betty Thomas","link":"doctor-doolittle"},"dopamine":{"title":"Dopamine","actor_1":"John Livingston","locations":[{"title":"South Park (Between 2nd and 3rd Streets, Brannan and Bryant Streets)","lat":37.7815501,"lng":-122.3940353},{"title":"Fort Point (Presidio, Golden Gate National Recreation Area)","lat":37.8105374,"lng":-122.4770634}],"release_year":"2003","production_company":"Kontent Films","distributor":"Sundance Channel Home Entertainment","actor_2":"Sabrina Lloyd","writer":"Mark Decena & Timothy Breitbach","director":"Mark Decena","link":"dopamine"},"down-periscope":{"title":"Down Periscope","actor_1":"Kelsey Grammer","release_year":"1996","production_company":"Twentieth Century Fox Film Corp.","distributor":"Twentieth Century Fox Film Corp.","actor_2":"Lauren Holly","writer":"Hugh Wilson","director":"David S. Ward","actor_3":"William Devane","link":"down-periscope","locations":[{"title":null,"lat":"","lng":""}]},"dr.-doolittle-2":{"title":"Dr. Doolittle 2","actor_1":"Eddie Murphy","locations":[{"title":"West Chrissy Field (Presidio, Golden Gate National Recreation Area)","lat":37.8039069,"lng":-122.4640618},{"title":"Sacramento St., Between Pierce & Broderick Streets ","lat":38.5815719,"lng":-121.4943996},{"title":"Hyde Street & Lombard Street","lat":41.2551721,"lng":-82.4066614},{"title":"Building 924, Presido (Golden Gate National Recreation Area)","lat":37.7831803,"lng":-122.4456642},{"title":"Broadway, Between Franklin & Laguna Streets","lat":"","lng":""}],"fun_facts":"This movie was the first to film in the revamped Chrissy Field Picnic Area.","release_year":"2001","production_company":"Twentieth Century Fox Film Corp.","distributor":"Twentieth Century Fox Film Corp.","actor_2":"Kristen Wilson","writer":"Larry Levin","director":"Steve Carr","actor_3":"William Devane","link":"dr.-doolittle-2"},"dream-for-an-insomniac":{"title":"Dream for an Insomniac","actor_1":"Ione Skye","locations":[{"title":"Elbo Room (647 Valencia Street)","lat":37.7625348,"lng":-122.4214496},{"title":"Baker Beach","lat":37.7938842,"lng":-122.4853277}],"fun_facts":"This location is called the \"Caf\u00e9 Blue Eyes\" in the film.","release_year":"1998","production_company":"Tritone Productions","distributor":"Columbia TriStar Home Video","actor_2":"Jennifer Aniston","writer":"Tiffanie DeBartolo","director":"Tiffanie DeBartolo","actor_3":"Julia Louis-Dreyfus","link":"dream-for-an-insomniac"},"dream-with-the-fishes":{"title":"Dream with the Fishes","actor_1":"David Arquette","locations":[{"title":"Pier 39","lat":37.808673,"lng":-122.409821},{"title":"Bay Bridge","lat":37.7998279,"lng":-122.3759478}],"release_year":"1997","production_company":"3 Ring Circus Films","distributor":"Sony Pictures Classics","actor_2":"Brad Hunt","writer":"Finn Taylor & Jeffrey Brown","director":"Finn Taylor","actor_3":"Rosie Perez","link":"dream-with-the-fishes"},"dying-young":{"title":"Dying Young","actor_1":"Julia Roberts","release_year":"1991","production_company":"Twentieth Century Fox Corporation","distributor":"Twentieth Century Fox Corporation","actor_2":"Campbell Scott","writer":"Richard Friedenberg","director":"Joel Schumacher","actor_3":"Rosie Perez","link":"dying-young","locations":[{"title":null,"lat":"","lng":""}]},"edtv":{"title":"Edtv","actor_1":"Matthew McConaughey","locations":[{"title":"Palace of Fine Arts (3301 Lyon Street)","lat":37.8027828,"lng":-122.4491124},{"title":"North Beach Video (1398 Grant Avenue at Green)","lat":37.799601,"lng":-122.4072141},{"title":"Moose's Restaurant (1652 Stockton)","lat":37.8010905,"lng":-122.4090875},{"title":"Mario's Bohemian Cigar Store (Washington Square)","lat":37.7749295,"lng":-122.4194155},{"title":"Center for the Arts, Yerba Buena Gardens (701 Mission Street)","lat":37.7857984,"lng":-122.4024238},{"title":"Castro Theatre (429 Castro Street, The Castro)","lat":37.7620333,"lng":-122.4347591},{"title":"20th & Connecticut Streets (Potrero Hill)","lat":44.987411,"lng":-121.820992},{"title":"19 Green Street (North Beach)","lat":37.80069,"lng":-122.3996025},{"title":"1138 Filbert Street","lat":37.800566,"lng":-122.418279}],"fun_facts":"The original Palace was built for the 1915 Panama-Pacific Exposition, and completely destroyed in 1964. It was rebuilt in 1965.","release_year":"1999","production_company":"Imagine Entertainment","distributor":"MCA \/ Universal Pictures","actor_2":"Jenna Elfman","writer":"Lowell Ganz","director":"Ron Howard","actor_3":"Rosie Perez","link":"edtv"},"escape-from-alcatraz":{"title":"Escape From Alcatraz","actor_1":"Clint Eastwood","locations":[{"title":"Alcatraz Island","lat":37.8269775,"lng":-122.4229555}],"fun_facts":"Alcatraz Island was a military fort before it became a prison.","release_year":"1979","production_company":"Paramount Pictures","distributor":"Paramount Pictures","actor_2":"Patrick McGoohan","writer":"Richard Tuggle","director":"Donald Siegel","actor_3":"Uma Thurman","link":"escape-from-alcatraz"},"experiment-in-terror":{"title":"Experiment in Terror","actor_1":"Glenn Ford","locations":[{"title":"Wells Fargo Bank (1 California Street, Financial District)","lat":37.7934143,"lng":-122.3967252},{"title":"The Sea Captain's Chest (Fisherman's Wharf)","lat":37.7749295,"lng":-122.4194155},{"title":"Sheraton Palace Hotel (2 Montgomery Street, Financial District)","lat":37.7893521,"lng":-122.4017967},{"title":"Roaring Twenties Nightclub (555 Broadway at Columbus)","lat":37.7978663,"lng":-122.4067479},{"title":"George Washington High School (600 32nd Avenue )","lat":37.7777914,"lng":-122.4917623},{"title":"Candlestick Park","lat":37.7135015,"lng":-122.3863198},{"title":"2632 Larkin Street at Lombard","lat":37.802317,"lng":-122.421059},{"title":"100 St. Germain Avenue","lat":37.757652,"lng":-122.450526},{"title":"1 Monthgomery Street at Post","lat":37.7892598,"lng":-122.4022427}],"release_year":"1962","production_company":"Columbia Pictures Corporation","distributor":"Columbia Pictures","actor_2":"Lee Remick","writer":"The Gordons","director":"Blake Edwards","link":"experiment-in-terror"},"faces-of-death":{"title":"Faces of Death","actor_1":"Michael Carr","release_year":"1978","production_company":"F.O.D Productions","distributor":"Aquarius Releasing","writer":"Alan Black","director":"Conan Le Cilaire","link":"faces-of-death","locations":[{"title":null,"lat":"","lng":""}]},"family-plot":{"title":"Family Plot","actor_1":"Bruce Dern","locations":[{"title":"Nob Hill","lat":37.793014,"lng":-122.416113},{"title":"Grace Cathedral Episcopal Church (1100 California Street)","lat":37.7918261,"lng":-122.4131913},{"title":"Fairmont Hotel (950 Mason Street, Nob Hill)","lat":37.7923392,"lng":-122.4105175},{"title":"2230 Sacramento Street","lat":37.7905823,"lng":-122.4305981}],"fun_facts":"Railroad tycoons like Leland Stanford (founder of Stanford University) lived in Nob Hill at the turn of the 20th Century. The 1906 earthquake completely destroeyd Nob Hill, with the exception of the wall that surrounded the mansions of Stanford and his neighbor Mark Hopkins. ","release_year":"1976","production_company":"Universal Pictures","distributor":"Universal Pictures","actor_2":"Barbara Harris","writer":"Ernest Lehman","director":"Alfred Hitchcock","link":"family-plot"},"fandom":{"title":"Fandom","actor_1":"Mark Hefti","release_year":"2004","production_company":"The Digital Golem","distributor":"Cinequest Distribution","actor_2":"Peter Quintana","writer":"Nicholas Tucker & Mark Hefti","director":"Nicholas Tucker","link":"fandom","locations":[{"title":null,"lat":"","lng":""}]},"fathers'-day":{"title":"Fathers' Day","actor_1":"Robin Williams","release_year":"1997","production_company":"Northern Lights Entertainment","distributor":"Columbia Broadcasting System","actor_2":"Billy Crystal","writer":"Lowell Ganz","director":"Ivan Reitman","link":"fathers'-day","locations":[{"title":null,"lat":"","lng":""}]},"fat-man-and-little-boy":{"title":"Fat Man and Little Boy","actor_1":"Paul Newman","locations":[{"title":"Postcard Row (Alamo Square, Hayes Valley)","lat":37.7749295,"lng":-122.4194155}],"fun_facts":"The 6 Victorian homes across from Alamo Square Park are among the few Victorians to survive the Great Fire.","release_year":"1989","production_company":"Paramount Pictures","distributor":"Paramount Pictures","actor_2":"John Cusack","writer":"Roland Joffe","director":"Roland Joffe","link":"fat-man-and-little-boy"},"fearless":{"title":"Fearless","actor_1":"Jeff Bridges","locations":[{"title":"Varennes Alley between Filbert and Union","lat":37.7749295,"lng":-122.4194155},{"title":"St. Peter & Paul's Church (666 Filbert Street, Washington Square)","lat":37.8009182,"lng":-122.410111},{"title":"San Francisco General Hospital Medical Center (1001 Potrero Avenue, Potrero Hill)","lat":37.7563054,"lng":-122.4045441},{"title":"Kohl Building (400 Montgomery Street)","lat":37.7931585,"lng":-122.4025313},{"title":"Folsom Street & Embarcadero","lat":30.6301889,"lng":-90.1873048},{"title":"Bank of America Building (555 California Street)","lat":37.7920903,"lng":-122.4036761},{"title":"90 Gold Street","lat":37.7967226,"lng":-122.403448},{"title":"5th and Beale Streets","lat":37.7887173,"lng":-122.3927842},{"title":"400 Montgomery Street","lat":37.7931585,"lng":-122.4025313}],"release_year":"1993","production_company":"Spring Creek Productions","distributor":"Warner Bros. Pictures","actor_2":"Isabella Rosellini","writer":"Rafael Yglesias","director":"Peter Weir","link":"fearless"},"final-analysis":{"title":"Final Analysis","actor_1":"Richard Gere","locations":[{"title":"Westin St. Francis Hotel (335 Powell Street, Union Square)","lat":37.7878172,"lng":-122.408767},{"title":"Public Health Service Hospital (Presidio, Golden Gate National Recreation Area)","lat":37.7749295,"lng":-122.4194155},{"title":"Presidio, Golden Gate National Recreation Area","lat":37.7988737,"lng":-122.4661937},{"title":"City Hall","lat":37.7793176,"lng":-122.4191405},{"title":"Bix Restaurant (56 Gold Street)","lat":37.7969025,"lng":-122.4029599}],"fun_facts":"The hotel was originally supposed to be named the Crocker Hotel, after Charles Founder the railroad magnate who founded it. However, the hotel took the name the St. Francis after one of the earliest Gold Rush hotels. ","release_year":"1992","production_company":"Warner Bros. Pictures","distributor":"Warner Bros. Pictures","actor_2":"Kim Basinger","writer":"Robert Berger","director":"Phil Joanou","link":"final-analysis"},"flower-drum-song":{"title":"Flower Drum Song","actor_1":"Nancy Kwan","locations":[{"title":"Golden Gate Bridge","lat":37.8198772,"lng":-122.4789386},{"title":"Chinatown","lat":37.7941378,"lng":-122.4077914}],"fun_facts":"With 23 miles of ladders and 300,000 rivets in each tower, the Golden Gate Bridge was the world's longest span when it opened in 1937.","release_year":"1961","production_company":"Fields Productions","distributor":"Universal Pictures","actor_2":"James Shigeta","writer":"Joseph Fields","director":"Henry Koster","link":"flower-drum-song"},"flubber":{"title":"Flubber","actor_1":"Robin Williams","locations":[{"title":"Treasure Island","lat":37.8235515,"lng":-122.370648}],"fun_facts":"An artificial island, Treasure Island was created for the 1939 Golden Gate International Exposition, and is named after the novel by Robert Louis Stevenson, a one-time San Francisco resident.","release_year":"1997","production_company":"Walt Disney Pictures","distributor":"Buena Vista Pictures","actor_2":"Marcia Gay Harden","writer":"Samuel W. Taylor","director":"Les Mayfield","link":"flubber"},"forrest-gump":{"title":"Forrest Gump","actor_1":"Tom Hanks","locations":[{"title":"Palace of Fine Arts (3301 Lyon Street)","lat":37.8027828,"lng":-122.4491124}],"fun_facts":"The original Palace was built for the 1915 Panama-Pacific Exposition, and completely destroyed in 1964. It was rebuilt in 1965.","release_year":"1994","production_company":"Paramount Pictures","distributor":"Parmaount Pictures","actor_2":"Robin Wright","writer":"Eric Roth","director":"Robert Zemeckis","link":"forrest-gump"},"forty-days-and-forty-nights":{"title":"Forty Days and Forty Nights","actor_1":"Josh Hartnett","locations":[{"title":"The Walden House, Buena Vista Park","lat":37.7682033,"lng":-122.4417696},{"title":"Caf\u00e9 Trieste (609 Vallejo)","lat":37.798737,"lng":-122.4075388}],"fun_facts":"Established in 1867, Buena Vista Park is the oldest official park in San Francisco.","release_year":"2002","production_company":"Miramax Films","distributor":"Miramax Films","actor_2":"Shaynnyn Sossamon","writer":"Robert Perez","director":"Michael Lehmann","link":"forty-days-and-forty-nights"},"foul-play":{"title":"Foul Play","actor_1":"Goldie Hawn","locations":[{"title":"War Memorial Opera House (401 Van Ness Avenue)","lat":37.7785837,"lng":-122.4207164},{"title":"Sutter & Buchannan Streets","lat":39.1598915,"lng":-121.7527482},{"title":"Sutter & Baker Streets","lat":39.1598915,"lng":-121.7527482},{"title":"Sokoji-Soto Zen Buddhist Temple (1691 Laguna Street)","lat":37.7864529,"lng":-122.4285802},{"title":"Sacramento & Hyde Streets (Nob Hill)","lat":38.5815719,"lng":-121.4943996},{"title":"Postcard Row (Alamo Square, Hayes Valley)","lat":37.7749295,"lng":-122.4194155},{"title":"Pawtrero Hill Bathhouse & Feed Co. (199 Mississippi Street)","lat":37.7641092,"lng":-122.394573},{"title":"Octavia & Hayes Streets (Hayes Valley)","lat":41.348066,"lng":-97.0589235},{"title":"Montgomery & Pine Streets (Financial District)","lat":32.3668052,"lng":-86.2999689},{"title":"Laguna & Sacramento Streets (Pacific Heights)","lat":41.5823975,"lng":-4.7215266},{"title":"Hayes Valley Care (601 Laguna Street, Hayes Valley)","lat":37.7768864,"lng":-122.4266889},{"title":"Golden Gate & Steiner Streets (Hayes Valley)","lat":38.3594924,"lng":-88.2042078},{"title":"Fort Point, Presidio","lat":37.8105374,"lng":-122.4770634},{"title":"Fort Mason (Golden Gate National Recreation Area)","lat":37.8074131,"lng":-122.4304447},{"title":"Flood Building (870 Market Street)","lat":37.785051,"lng":-122.4073855},{"title":"Fiesta Laundromat (898 S. Van Ness Ave., Mission)","lat":37.7589043,"lng":-122.4172646},{"title":"City Hall","lat":37.7793176,"lng":-122.4191405},{"title":"California & Larkin Streets (Nob Hill)","lat":36.778261,"lng":-119.4179324},{"title":"Asian Art Museum (200 Larkin Street, Civic Center)","lat":37.7802622,"lng":-122.4160294},{"title":"Andrew S. Hallidie Plaza (Market & Powell Streets)","lat":37.7844062,"lng":-122.4079684},{"title":"430 Vallejo Street (Telegraph Hill)","lat":37.79928,"lng":-122.404632},{"title":"24th and Castro Streets (Noe Valley)","lat":37.7512991,"lng":-122.4340749}],"fun_facts":"In 1945 the United Nations had its first conference at The War Memorial Opera House.","release_year":"1978","production_company":"Paramount Pictures","distributor":"Paramount Pictures","actor_2":"Chevy Chase","writer":"Colin Higgins","director":"Colin Higgins","link":"foul-play"},"freebie-and-the-bean":{"title":"Freebie and the Bean","actor_1":"Alan Arkin","locations":[{"title":"Twin Peaks","lat":37.7544066,"lng":-122.4476845},{"title":"TransAmerica Pyramid (600 Montgomery Street)","lat":37.7950794,"lng":-122.402732},{"title":"Stockton Tunnel (Stockton Street at Sutter Street)","lat":37.7914972,"lng":-122.4074177},{"title":"Steinhart Aquarium (California Academy of Sciences, Golden Gate Park)","lat":37.7698125,"lng":-122.4661917},{"title":"Potrero Hill","lat":37.7604929,"lng":-122.400869},{"title":"Nob Hill","lat":37.793014,"lng":-122.416113},{"title":"Hyatt Regency Hotel (5 Embarcadero Center)","lat":37.7944232,"lng":-122.3955429},{"title":"Folsom Street (SOMA)","lat":37.761319,"lng":-122.4149557},{"title":"Fairmont Hotel (950 Mason Street, Nob Hill)","lat":37.7923392,"lng":-122.4105175},{"title":"Embarcadero Freeway","lat":37.7560529,"lng":-122.3924235},{"title":"Candlestick Park (602 Jamestown Ave.)","lat":37.711244,"lng":-122.3865366},{"title":"Broadway and Columbus Avenue (North Beach)","lat":37.7978825,"lng":-122.4067348},{"title":"Alco Plaza","lat":34.9840089,"lng":-120.4495793}],"fun_facts":"The 2nd highest point in SF after Mt. Davidson, Twin Peaks sit at the geographic center of SF. The native Ohlone people called the area \"called the area \u201cLos Pechos de la Chola\u201d or \"Breasts of the Indian Maiden,\" but in the 19th Century when America took over the area, it was renamed \"Twin Peaks\".","release_year":"1974","production_company":"Warner Bros. Pictures","distributor":"American Broadcasting Company (ABC)","actor_2":"James Caan","writer":"Robert Kaufman","director":"Richard Rush","link":"freebie-and-the-bean"},"gentleman-jim":{"title":"Gentleman Jim","actor_1":"Errol Flynn","locations":[{"title":"The Barbary Coast","lat":37.784196,"lng":-122.40811}],"fun_facts":"The Barbary Coast was a red-light district that was largely destroyed in the 1906 earthquake. Though some of the establishments were rebuilt after the earthquake, an anti-vice campaign put the establisments out of business.","release_year":"1942","production_company":"Warner Bros. Pictures","distributor":"Warner Bros. Pictures","writer":"Vincent Lawrence","director":"Raoul Walsh","actor_3":"Katherine Hepburn","link":"gentleman-jim"},"george-of-the-jungle":{"title":"George of the Jungle","actor_1":"Brendan Fraser","locations":[{"title":"The Tamalpias Building (1201 Greenwich Street at Hyde)","lat":37.800779,"lng":-122.419766},{"title":"Neiman Marcus (150 Stockton Street, Union Square)","lat":37.7873832,"lng":-122.4061906},{"title":"First Bank (550 Montgomery Street at Commercial)","lat":37.7944838,"lng":-122.4029129},{"title":"Bay Bridge","lat":37.7998279,"lng":-122.3759478},{"title":"755 Vallejo Street","lat":37.7984572,"lng":-122.4098399}],"release_year":"1997","production_company":"Walt Disney Pictures","distributor":"Buena Vista Pictures","actor_2":"Leslie Mann","writer":"Jay Ward","director":"Sam Weisman","link":"george-of-the-jungle"},"getting-even-with-dad":{"title":"Getting Even with Dad","actor_1":"Macaulay Culkin","locations":[{"title":"War Memorial Building (401 Van Ness Avenue)","lat":37.7785837,"lng":-122.4207164},{"title":"Transbay Terminal (Mission Street at 1st Street)","lat":37.789859,"lng":-122.393376},{"title":"St. Peter & Paul's Church (666 Filbert Street, Washington Square)","lat":37.8009182,"lng":-122.410111},{"title":"Neiman Marcus (150 Stockton Street, Union Square)","lat":37.7873832,"lng":-122.4061906},{"title":"Mason Street at Jackson","lat":37.7954401,"lng":-122.4115822},{"title":"M.H. de Young Memorial Museum (Golden Gate Park)","lat":37.7749295,"lng":-122.4194155},{"title":"Embarcadero Street Station- BART ","lat":37.7647977,"lng":-122.4200102},{"title":"Candlestick Park (602 Jamestown Ave.)","lat":37.711244,"lng":-122.3865366},{"title":"California & Grant Streets","lat":36.778261,"lng":-119.4179324},{"title":"140 Maiden Lane","lat":37.7882919,"lng":-122.4059318}],"release_year":"1994","production_company":"Metro-Goldwyn-Mayer (MGM)","distributor":"Metro-Goldwyn-Mayer (MGM)","actor_2":"Ted Danson","writer":"Tom S. Parker","director":"Howard Deutch","link":"getting-even-with-dad"},"god-is-a-communist?*-(show-me-heart-universe)":{"title":"God is a Communist?* (show me heart universe)","actor_1":"John Wynn","locations":[{"title":"Sacramento & Washington Streets","lat":38.5815719,"lng":-121.4943996}],"release_year":"2010","production_company":"Trismegistus","writer":"Jon Poznanter","director":"Jon Poznanter","link":"god-is-a-communist?*-(show-me-heart-universe)"},"godzilla":{"title":"Godzilla","actor_1":"Aaron Taylor-Johnson","locations":[{"title":"California & Davis St","lat":36.778261,"lng":-119.4179324},{"title":"Pine St. & Davis St","lat":31.4478847,"lng":-81.9240784},{"title":"Sacramento & Front St.","lat":38.5815719,"lng":-121.4943996},{"title":"Broadway & Sansome","lat":40.8990731,"lng":-73.8972107},{"title":"Broadway & Columbus","lat":40.8990731,"lng":-73.8972107},{"title":"Kearney & Pine St.","lat":40.6993303,"lng":-99.0816784},{"title":"Post & Jones St.","lat":46.6656789,"lng":7.5827599},{"title":"Stockton & Clay St","lat":37.9577016,"lng":-121.2907796},{"title":"Bush & Kearny","lat":46.0471103,"lng":-88.10709},{"title":"Mission & Fremont St","lat":26.2159066,"lng":-98.3252932},{"title":"Eddy & Taylor St.","lat":32.4170622,"lng":-104.4723301},{"title":"Pier 7 (The Embarcadero)","lat":37.8001077,"lng":-122.3943664},{"title":"Pier 1","lat":37.7969874,"lng":-122.3951684},{"title":"Embarcadero & Washington","lat":37.7976769,"lng":-122.3943387},{"title":"Mission & Beal","lat":26.2159066,"lng":-98.3252932},{"title":"Potrero &San Bruno","lat":19.4769704,"lng":-99.1321707}],"release_year":"2014","production_company":"Nautiflus Productions, LLC","distributor":"Warner Bros. Pictures","actor_2":"Elizabeth Olsen","writer":"Max Borenstein","director":"Gareth Edwards","actor_3":"Bryan Cranston","link":"godzilla"},"golden-gate":{"title":"Golden Gate","actor_1":"Macaulay Culkin","locations":[{"title":"University of California Hastings College of the Law","lat":37.7808685,"lng":-122.4156292},{"title":"Ross Alley (Chinatown)","lat":37.7955378,"lng":-122.4073916},{"title":"Golden Gate Bridge","lat":37.8198772,"lng":-122.4789386},{"title":"Bush Street (between Grant & Kearny Streets)","lat":37.7885008,"lng":-122.4220224},{"title":"Buena Vista Park (Haight Street at Buena Vista)","lat":37.7682033,"lng":-122.4417696}],"release_year":"1994","production_company":"Metro-Goldwyn-Mayer (MGM)","distributor":"Metro-Goldwyn-Mayer (MGM)","actor_2":"Ted Danson","writer":"Tom S. Parker","director":"Howard Deutch","link":"golden-gate"},"greed":{"title":"Greed","actor_1":"Zasu Pitts","locations":[{"title":"Hayes Street at Laguna","lat":37.7764647,"lng":-122.4262985},{"title":"Cliff House (1090 Point Lobos Avenue)","lat":37.7784327,"lng":-122.5139671},{"title":"Bush and Sutter Streets","lat":37.7873702,"lng":-122.4234239}],"release_year":"1924","production_company":"Metro-Goldwyn-Mayer (MGM)","distributor":"Metro-Goldwyn-Mayer (MGM)","writer":"Eric von Stroheim ","director":"Eric von Stroheim ","actor_3":"Cloris Leachman","link":"greed"},"groove":{"title":"Groove","actor_1":"Chris Ferreira","locations":[{"title":"435 23rd Street at Ilinois","lat":37.7552805,"lng":-122.3845881},{"title":"435 23rd Street at Ilinois","lat":37.7552805,"lng":-122.3845881},{"title":"435 23rd Street at Ilinois","lat":37.7552805,"lng":-122.3845881}],"release_year":"2000","production_company":"415 Productions","distributor":"Sony Pictures Classics","actor_2":"Elizabeth Sun","writer":"Greg Harrison","director":"Greg Harrison","actor_3":"Cloris Leachman","link":"groove"},"guess-who's-coming-to-dinner":{"title":"Guess Who's Coming to Dinner","actor_1":"Spencer Tracy","locations":[{"title":"Sutter Street between Powell and Mason","lat":37.7749295,"lng":-122.4194155},{"title":"San Francisco International Airport","lat":37.615223,"lng":-122.389979},{"title":"Mel's Drive-In (Corner South Van Ness & Mission St.)","lat":37.7749295,"lng":-122.4194155},{"title":"634 Raycliff Terrace","lat":37.7927793,"lng":-122.4427278}],"release_year":"1967","production_company":"Columbia Pictures Corporation","distributor":"Columbia Pictures","actor_2":"Sidney Poitier","writer":"William Rose","director":"Stanley Kramer","actor_3":"Cloris Leachman","link":"guess-who's-coming-to-dinner"},"haiku-tunnel":{"title":"Haiku Tunnel","actor_1":"Josh Kornbluth","release_year":"2001","production_company":"Hello Hooker Productions","distributor":"Sony Pictures Classics","actor_2":"Warren Keith","writer":"Jakob Kornbluth & Josh Kornbluth","director":"Jakob Kornbluth & Josh Kornbluth","link":"haiku-tunnel","locations":[{"title":null,"lat":"","lng":""}]},"happy-gilmore":{"title":"Happy Gilmore","actor_1":"Adam Sandler","release_year":"1996","production_company":"Brillstein-Grey Entertainment","distributor":"Universal Pictures","writer":"Tim Herlihy","director":"Dennis Dugan","link":"happy-gilmore","locations":[{"title":null,"lat":"","lng":""}]},"hard-to-hold":{"title":"Hard to Hold","actor_1":"Rick Springfield","locations":[{"title":"Fairmont Hotel (950 Mason Street, Nob Hill)","lat":37.7923392,"lng":-122.4105175}],"fun_facts":"In 1945 the Fairmont hosted the United Nations Conference on International Organization as delegates arrived to draft a charter for the organization. The U.S. Secretary of State, Edward Stettinus drafted the charter in the hotel's Garden Room.","release_year":"1984","production_company":"Universal Pictures","distributor":"Universal Pictures","writer":"Thomas Hedley, Jr. ","director":"Larry Peerce","actor_3":"Whoppi Goldberg","link":"hard-to-hold"},"harold-and-maude":{"title":"Harold and Maude","actor_1":"Ruth Gordon","locations":[{"title":"Sutro Baths (Point Lobos Avenue)","lat":37.7798498,"lng":-122.5138482},{"title":"Golden Gate Park","lat":37.7694208,"lng":-122.4862138},{"title":"Conservatory of Flowers (Golden Gate Park)","lat":37.7726683,"lng":-122.4587578}],"release_year":"1971","production_company":"Mildred Lewis and Colin Higgins Productions","distributor":"Paramount Pictures","actor_2":"Bud Cort","writer":"Colin Higgins","director":"Hal Ashby","actor_3":"Sam Elliot","link":"harold-and-maude"},"heart-and-souls":{"title":"Heart and Souls","actor_1":"Jorgen Leth","locations":[{"title":"War Memorial Opera House (401 Van Ness Avenue)","lat":37.7785837,"lng":-122.4207164},{"title":"Stockton Tunnel (Stockton Street at Sutter Street)","lat":37.7914972,"lng":-122.4074177},{"title":"Conservatory of Flowers (Golden Gate Park)","lat":37.7726683,"lng":-122.4587578},{"title":"2810 Pacific Avenue","lat":37.792743,"lng":-122.442084}],"fun_facts":"In 1945 the United Nations had its first conference at The War Memorial Opera House.","release_year":"1994","production_company":"Universal Pictures","distributor":"Electric Parc","writer":"Tomas Gislason","director":"Tomas Gislason","actor_3":"Sam Elliot","link":"heart-and-souls"},"heart-beat":{"title":"Heart Beat","actor_1":"Nick Nolte","locations":[{"title":"Washington Square Bar & Grill (1707 Powell)","lat":37.8003991,"lng":-122.4110834},{"title":"San Francisco Art Institute (800 Chestnut Street)","lat":37.8033836,"lng":-122.4172055},{"title":"City Lights Bookstore (261 Columbus)","lat":37.797601,"lng":-122.406579}],"release_year":"1980","production_company":"Orion Pictures Corporation","distributor":"Orion Pictures Corporation","actor_2":"Sissy Spacek","writer":"John Byrum","director":"John Byrum","link":"heart-beat"},"hello-frisco,-hello":{"title":"Hello Frisco, Hello","actor_1":"Alice Faye","release_year":"1943","production_company":"Twentieth Century Fox Film Corporation","distributor":"Twentieth Century Fox Film Corporation","writer":"Robert Ellis","director":"Bruce Humberstone","actor_3":"Meg Ryan","link":"hello-frisco,-hello","locations":[{"title":null,"lat":"","lng":""}]},"hemingway-&-gelhorn":{"title":"Hemingway & Gelhorn","actor_1":"Nicole Kidman","locations":[{"title":"Muni Metro East (501 Cesar Chavez)","lat":37.7500028,"lng":-122.3827535}],"release_year":"2011","production_company":"Attaboy Films, For Whom Productions, Home Box Office (HBO)","distributor":"Home Box Office (HBO)","actor_2":"Clive Owen","writer":"Jerry Stahl & Barbara Turner","director":"Philip Kaufman","actor_3":"Tom Cruise","link":"hemingway-&-gelhorn"},"herbie-rides-again":{"title":"Herbie Rides Again","actor_1":"Helen Hayes","locations":[{"title":"Sheraton Palace Hotel (639 Market Street)","lat":37.7887398,"lng":-122.4020779},{"title":"Golden Gate Bridge","lat":37.8198772,"lng":-122.4789386},{"title":"Castagnola's Restaurant (Fisherman's Wharf)","lat":37.7749295,"lng":-122.4194155}],"fun_facts":"The hotel was destroyed in the 1906 earthquake and fire, had to be rebuilt, and was reopened in 1909. ","release_year":"1974","production_company":"Walt Disney Productions","distributor":"Buena Vista Distribution","actor_2":"Ken Berry","writer":"Bill Walsh","director":"Robert Stevenson","actor_3":"Tom Cruise","link":"herbie-rides-again"},"hereafter":{"title":"Hereafter","actor_1":"Matt Damon","locations":[{"title":"Hobart Building (582 Market Street)","lat":37.7895395,"lng":-122.401542},{"title":"The Final Final (2990 Baker Street)","lat":37.7985342,"lng":-122.4456984},{"title":"1160 Taylor Street","lat":37.7932294,"lng":-122.4127738}],"release_year":"2009","production_company":"GT Films","distributor":"Warner Bros. Pictures","actor_2":"Cecile De France","writer":"Peter Morgan","director":"Clint Eastwood","link":"hereafter"},"high-anxiety":{"title":"High Anxiety","actor_1":"Mel Brooks","locations":[{"title":"Hyatt Regency Hotel (5 Embarcadero Center)","lat":37.7944232,"lng":-122.3955429},{"title":"Fort Point (Presidio, Golden Gate National Recreation Area)","lat":37.8105374,"lng":-122.4770634},{"title":"Conservatory of Flowers, Golden Gate Park","lat":37.7726683,"lng":-122.4587578}],"release_year":"1977","production_company":"Twentieth Century Fox Film Corporation","distributor":"Twentieth Century Fox Film Corporation","actor_2":"Madeline Kahn","writer":"Mel Brooks","director":"Mel Brooks","link":"high-anxiety"},"high-crimes":{"title":"High Crimes","actor_1":"Mel Brooks","locations":[{"title":"Vesuvio Caf\u00e9 (255 Columbus Avenue)","lat":37.7974835,"lng":-122.4065082},{"title":"Union Square","lat":37.7879938,"lng":-122.4074374},{"title":"Maiden Lane","lat":37.7882406,"lng":-122.4052008},{"title":"Condor Club (Columbus and Broadway)","lat":37.7749295,"lng":-122.4194155},{"title":"Chase H & Q  (1 Bush Street at Sansome)","lat":37.7909706,"lng":-122.4000429},{"title":"Bank of America Building (555 California Street)","lat":37.7920903,"lng":-122.4036761},{"title":"391 Pennsylvania Avnue at 19th Street","lat":37.761621,"lng":-122.393173}],"fun_facts":"Jack Kerouac was a regular at the caf\u00e9.","release_year":"1977","production_company":"Twentieth Century Fox Film Corporation","distributor":"Twentieth Century Fox Film Corporation","actor_2":"Madeline Kahn","writer":"Mel Brooks","director":"Mel Brooks","link":"high-crimes"},"homeward-bound-ii:-lost-in-san-francisco":{"title":"Homeward Bound II: Lost in San Francisco","actor_1":"Michael J. Fox","locations":[{"title":"Pier 39 (Fisherman's Wharf)","lat":37.808673,"lng":-122.409821}],"release_year":"1996","production_company":"Walt Disney Pictures","distributor":"Buena Vista Pictures","actor_2":"Sally Field","writer":"Sheila Burnford","director":"David R. Ellis","link":"homeward-bound-ii:-lost-in-san-francisco"},"house-of-sand-and-fog":{"title":"House of Sand and Fog","actor_1":"Jennifer Connelly","release_year":"2003","production_company":"DreamWorks SKG","distributor":"DreamWorks Distribution","actor_2":"Ben Kingsley","writer":"Vadim Perelman","director":"Vadim Perelman","link":"house-of-sand-and-fog","locations":[{"title":null,"lat":"","lng":""}]},"how-stella-got-her-groove-back":{"title":"How Stella Got Her Groove Back","actor_1":"Angela Bassett","locations":[{"title":"Marriot Hotel (55 4th Street at Market)","lat":37.785128,"lng":-122.4046809}],"release_year":"1998","production_company":"Twentieth Century Fox Film Corporation","distributor":"Twentieth Century Fox Film Corporation","actor_2":"Taye Diggs","writer":"Terry McMillan","director":"Kevin Rodney Sullivan","link":"how-stella-got-her-groove-back"},"hulk":{"title":"Hulk","actor_1":"Eric Bana","locations":[{"title":"Vallejo Street at Sansome","lat":37.7993922,"lng":-122.4024386},{"title":"Treasure Island","lat":37.8235515,"lng":-122.370648},{"title":"Telegraph Hill","lat":37.8013407,"lng":-122.4056674},{"title":"Golden Gate Bridge","lat":37.8198772,"lng":-122.4789386}],"release_year":"2003","production_company":"Universal Pictures","distributor":"Universal Pictures","actor_2":"Jennifer Connelly","writer":"Stan Lee","director":"Ang Lee","link":"hulk"},"indiana-jones-and-the-last-crusade":{"title":"Indiana Jones and the Last Crusade","actor_1":"Harrison Ford","locations":[{"title":"Administration Building (Treasure Island)","lat":37.7211815,"lng":-122.4771899}],"fun_facts":"An artificial island, Treasure Island was created for the 1939 Golden Gate International Exposition, and is named after the novel by Robert Louis Stevenson, a one-time San Francisco resident.","release_year":"1989","production_company":"Paramount Pictures","distributor":"Paramount Pictures","actor_2":"Sean Connery","writer":"Jeffrey Boam","director":"Steven Spielberg","actor_3":"Chazz Palminteri","link":"indiana-jones-and-the-last-crusade"},"innerspace":{"title":"Innerspace","actor_1":"Dennis Quaid","locations":[{"title":"Telegraph Hill","lat":37.8013407,"lng":-122.4056674},{"title":"Mark Hopkins Intercontinental Hotel (1 Nob Hill Circle, Nob Hill)","lat":37.7914046,"lng":-122.4101888},{"title":"Golden Gate Bridge","lat":37.8198772,"lng":-122.4789386}],"fun_facts":"Largely untouched by the 1906 earthquake, Telegraph Hill has the most pre-1870 buildings in the city.","release_year":"1987","production_company":"Amblin Entertainment","distributor":"Warner Bros. Pictures","actor_2":"Martin Short","writer":"Chip Proser","director":"Joe Dante","actor_3":"Chazz Palminteri","link":"innerspace"},"interview-with-the-vampire":{"title":"Interview With The Vampire","actor_1":"Brad Pitt","locations":[{"title":"Golden Gate Bridge","lat":37.8198772,"lng":-122.4789386},{"title":"Ferry Building","lat":37.795923,"lng":-122.392052},{"title":"6th Street On-ramp to Highway 280","lat":37.7749295,"lng":-122.4194155},{"title":"100 Market Street at 6th Street","lat":37.7942635,"lng":-122.3955861}],"fun_facts":"With 23 miles of ladders and 300,000 rivets in each tower, the Golden Gate Bridge was the world's longest span when it opened in 1937.","release_year":"1994","production_company":"Geffen Pictures","distributor":"Geffen Pictures","actor_2":"Christian Slater","writer":"Anne Rice","director":"Neil Jordan","actor_3":"Chazz Palminteri","link":"interview-with-the-vampire"},"invasion-of-the-body-snatchers":{"title":"Invasion of the Body Snatchers","actor_1":"Donald Sutherland","locations":[{"title":"United Nations Plaza (Civic Center)","lat":37.7799084,"lng":-122.4143136},{"title":"Transamerica Building (600 Montgomery Street at Clay)","lat":37.7950794,"lng":-122.402732},{"title":"San Francisco Drydock (20th and Illinois Streets)","lat":37.7605687,"lng":-122.387575},{"title":"Ramada Plaza Hotel Downtown (1231 Market Street, Civic Center)","lat":37.7784671,"lng":-122.4150926},{"title":"Postcard Row (Alamo Square, Hayes Valley)","lat":37.7749295,"lng":-122.4194155},{"title":"Pier 33 (Embarcadero)","lat":37.8069079,"lng":-122.4051616},{"title":"Lafayette Park (Pacific Heights)","lat":37.7916146,"lng":-122.4276133},{"title":"Hamlin Hotel (385 Eddy Street)","lat":37.78356,"lng":-122.413863},{"title":"Department of Public Health (101 Grove Street at Polk, Civic Center)","lat":37.7782658,"lng":-122.4187097},{"title":"City Hall","lat":37.7793176,"lng":-122.4191405},{"title":"Chinatown","lat":37.7941378,"lng":-122.4077914},{"title":"Broadway Tunnel (Russian Hill)","lat":37.7964329,"lng":-122.4173931},{"title":"Bimbo's 365 Club (1025 Columbus Avenue, North Beach)","lat":37.8037005,"lng":-122.4155782},{"title":"720 Steiner Street (Hayes Valley)","lat":37.776381,"lng":-122.432742},{"title":"32 Napier Lane","lat":37.802602,"lng":-122.403852},{"title":"1227 Montgomery Street (Telegraph Hill)","lat":37.8004632,"lng":-122.4045382}],"fun_facts":"United Nations Plaza was built in 1975 and across its walkways are white lines into which the preamble to the preamble of the UN charter is carved.","release_year":"1978","production_company":"Solofilm","distributor":"United Artists","actor_2":"Jeff Goldblum","writer":"Jack Finney","director":"Philip Kaufman","link":"invasion-of-the-body-snatchers"},"i-remember-mama":{"title":"I Remember Mama","actor_1":"Irene Dunne","locations":[{"title":"The Ferry Building","lat":37.795923,"lng":-122.392052},{"title":"Grant Avenue (North Beach)","lat":37.7974931,"lng":-122.406982},{"title":"Fairmont Hotel (950 Mason Street, Nob Hill)","lat":37.7923392,"lng":-122.4105175}],"fun_facts":"Every hour and half-hour, the clock bell atop the Ferry Building chimes portions of the Westminster Quarters.","release_year":"1948","production_company":"RKO Radio Pictures","distributor":"RKO Radio Pictures","actor_2":"Barbara Bel Geddes","writer":"DeWitt Bodeen","director":"George Stevens","actor_3":"Jennifer Lopez","link":"i-remember-mama"},"i's":{"title":"I's","locations":[{"title":"1 Post Street","lat":37.788838,"lng":-122.4027153}],"release_year":"2011","production_company":"Banshee Cinema","writer":"Kyle Tuck","director":"Chris Edgette","link":"i's"},"it-came-from-beneath-the-sea":{"title":"It Came From Beneath the Sea","actor_1":"Kenneth Tobey","locations":[{"title":"Hunters Point","lat":37.7276095,"lng":-122.3702611},{"title":"Golden Gate Bridge","lat":37.8198772,"lng":-122.4789386},{"title":"Chrissy Field","lat":37.8039069,"lng":-122.4640618}],"fun_facts":"With 23 miles of ladders and 300,000 rivets in each tower, the Golden Gate Bridge was the world's longest span when it opened in 1937.","release_year":"1955","production_company":"Clover Productions","distributor":"Columbia Pictures","writer":"George Worthing Yates","director":"Robert Gordon","link":"it-came-from-beneath-the-sea"},"jack":{"title":"Jack","actor_1":"Robin Williams","release_year":"1996","production_company":"American Zoetrope","distributor":"Buena Vista Pictures","actor_2":"Diane Lane","writer":"James DeMonaco","director":"Francis Ford Coppola","actor_3":"Jamie Chung","link":"jack","locations":[{"title":null,"lat":"","lng":""}]},"jade":{"title":"Jade","actor_1":"David Caruso","locations":[{"title":"Washington Square (North Beach)","lat":37.8009182,"lng":-122.410111},{"title":"War Memorial Opera House (401 Van Ness Avenue)","lat":37.7785837,"lng":-122.4207164},{"title":"Sheraton Palace Hotel (639 Market Street)","lat":37.7887398,"lng":-122.4020779},{"title":"Palace of Fine Arts","lat":37.801456,"lng":-122.448053},{"title":"Lombard & Hyde Streets","lat":41.8800296,"lng":-88.0078435},{"title":"Japanese Tea Garden (Hagiwara Tea Garden Drive, Golden Gate Park)","lat":37.7702043,"lng":-122.4701584},{"title":"Hall of Justice (850 Bryant Street)","lat":37.7754356,"lng":-122.403939},{"title":"Fior d' Italia (601 Union Street at Stockton)","lat":37.8002993,"lng":-122.4093495},{"title":"Fairmont Hotel (950 Mason Street, Nob Hill)","lat":37.7923392,"lng":-122.4105175}],"fun_facts":"Washington Square Park is not actually a square, as it has 5 sides. North Beach is not a beach.","release_year":"1995","production_company":"Paramount Pictures","distributor":"Paramount Pictures","actor_2":"Linda Fiorentino","writer":"Joe Eszterhas","director":"William Friedkin","actor_3":"Jamie Chung","link":"jade"},"jagged-edge":{"title":"Jagged Edge","actor_1":"Maria Mayenzet","locations":[{"title":"Golden Gate Bridge","lat":37.8198772,"lng":-122.4789386},{"title":"City Hall","lat":37.7793176,"lng":-122.4191405}],"fun_facts":"With 23 miles of ladders and 300,000 rivets in each tower, the Golden Gate Bridge was the world's longest span when it opened in 1937.","release_year":"1985","production_company":"Columbia Pictures Corp.","distributor":"Columbia Pictures","writer":"Joe Eszterhas","director":"Richard Marquand","link":"jagged-edge"},"james-and-the-giant-peach":{"title":"James and the Giant Peach","actor_1":"Richard Dreyfuss","release_year":"1996","production_company":"Skellington Productions","distributor":"Walt Disney Studios Home Entertainment","actor_2":"Jane Leeves","writer":"Karey Kirkpatrick","director":"Henry Selick","link":"james-and-the-giant-peach","locations":[{"title":null,"lat":"","lng":""}]},"joy-luck-club":{"title":"Joy Luck Club","actor_1":"Kieu Chung","locations":[{"title":"Horace Mann School (3351 23rd Street)","lat":37.7535332,"lng":-122.4199993},{"title":"Hang Ah Alley (Chinatown)","lat":37.7941248,"lng":-122.4075468},{"title":"901 Union Street","lat":37.799619,"lng":-122.41434},{"title":"610 Rhode Island Street (Potrero Hill)","lat":37.7619169,"lng":-122.402566},{"title":"375 Laguna Honda Blvd.","lat":37.747287,"lng":-122.4592344},{"title":"180 Manchester Street","lat":37.744204,"lng":-122.414328}],"release_year":"1993","production_company":"Hollywood Pictures","distributor":"National Broadcasting Company (NBC)","writer":"Amy Tan","director":"Wayne Wang","link":"joy-luck-club"},"julie-and-jack":{"title":"Julie and Jack","actor_1":"Jenn Gotzon","release_year":"2003","production_company":"Moviehead Pictures","distributor":"Echelon Entertainment","actor_2":"Tippi Hedren","writer":"James Nguyen & Joe Bright","director":"James Nguyen","link":"julie-and-jack","locations":[{"title":null,"lat":"","lng":""}]},"junior":{"title":"Junior","actor_1":"Arnold Schwarzenegger","locations":[{"title":"United Nations Plaza (Civic Center)","lat":37.7799084,"lng":-122.4143136},{"title":"Postcard Row (Alamo Square, Hayes Valley)","lat":37.7749295,"lng":-122.4194155},{"title":"Hyatt Fisherman's Wharf (555 Northpoint Street)","lat":37.8060216,"lng":-122.4162944},{"title":"Fairmont Hotel (950 Mason Street, Nob Hill)","lat":37.7923392,"lng":-122.4105175},{"title":"Chinatown Gate","lat":37.8052914,"lng":-122.4318383},{"title":"722 Steiner Street","lat":37.776454,"lng":-122.432757},{"title":"2552 Hyde Street","lat":37.804561,"lng":-122.419872}],"fun_facts":"United Nations Plaza was built in 1975 and across its walkways are white lines into which the preamble to the preamble of the UN charter is carved.","release_year":"1994","production_company":"Northern Lights Entertainment","distributor":"Universal Pictures","actor_2":"Danny DeVito","writer":"Kevin Wade","director":"Ivan Reitman","link":"junior"},"just-like-heaven":{"title":"Just Like Heaven","actor_1":"Reese Witherspoon","release_year":"2005","production_company":"DreamWorks SKG","distributor":"DreamWorks Distribution","actor_2":"Mark Ruffalo","writer":"Peter Tolan","director":"Mark Waters","link":"just-like-heaven","locations":[{"title":null,"lat":"","lng":""}]},"just-one-night":{"title":"Just One Night","actor_1":"Timothy Hutton","locations":[{"title":"Ferry Building","lat":37.795923,"lng":-122.392052}],"fun_facts":"Every hour and half-hour, the clock bell atop the Ferry Building chimes portions of the Westminster Quarters.","release_year":"2000","production_company":"Panoptic Pictures","distributor":"First Look International","actor_2":"Maria Grazia Cucinotta","writer":"Alan Jacobs","director":"Alan Jacobs","actor_3":"Josh Brolin","link":"just-one-night"},"kamikaze-hearts":{"title":"Kamikaze Hearts","locations":[{"title":"Market Street Between Noe and Sanchez","lat":37.7749295,"lng":-122.4194155}],"release_year":"1986","production_company":"Leger\/Bashore","distributor":"Facets Multimedia Distribution","writer":"Juliet Bashore","director":"Juliet Bashore","actor_3":"Josh Brolin","link":"kamikaze-hearts"},"knife-fight":{"title":"Knife Fight","actor_1":"Jennifer Morrison","locations":[{"title":"California & Hyde Streets","lat":36.778261,"lng":-119.4179324},{"title":"City Hall","lat":37.7793176,"lng":-122.4191405},{"title":"Green & Laguna Streets","lat":42.6287336,"lng":-89.6251646}],"release_year":"2012","production_company":"Divisadero Pictures & Knife Fight","distributor":"Eagle Films","actor_2":"Eric McCormack","writer":"Bill Guttentag & Chris Lehane","director":"Bill Guttentag","actor_3":"Josh Brolin","link":"knife-fight"},"live-nude-girls-unite":{"title":"Live Nude Girls Unite","locations":[{"title":"Lusty Lady Bar (North Beach)","lat":37.7749295,"lng":-122.4194155}],"release_year":"2000","production_company":"Constant Communication","distributor":"First Run Features","writer":"Vicky Funari","director":"Vicky Funari","actor_3":"Josh Brolin","link":"live-nude-girls-unite"},"looking":{"title":"Looking","actor_1":"Jonathan Groff","locations":[{"title":"770 Haight St","lat":37.771831,"lng":-122.43489},{"title":"Eros","lat":37.7223233,"lng":-122.4786738},{"title":"Doc's Clock","lat":37.7901012,"lng":-122.3905714},{"title":"Starbucks at 333 O'Farrell St.","lat":37.78539,"lng":-122.411},{"title":"Union Square","lat":37.7879938,"lng":-122.4074374},{"title":"The Caf\u00e9 at 2369 Market St.","lat":37.7629891,"lng":-122.4343127},{"title":"Castro St. from Market to 18th St.","lat":37.7620384,"lng":-122.41611},{"title":"Bay Bridge","lat":37.7998279,"lng":-122.3759478},{"title":"Treasure Island","lat":37.8235515,"lng":-122.370648},{"title":"The Fairmont","lat":37.7924,"lng":-122.4102},{"title":"1890 Clay St.","lat":37.7922528,"lng":-122.4238729},{"title":"2000 Folsom","lat":37.765015,"lng":-122.415715},{"title":"Mission Arts Center","lat":37.7509851,"lng":-122.4185895},{"title":"2413 Harrison St.","lat":37.758566,"lng":-122.412151},{"title":"Muddy Waters Coffee House","lat":37.7749295,"lng":-122.4194155},{"title":"Valencia St. from 16th to 17th","lat":37.7749295,"lng":-122.4194155},{"title":"601 Buena Vista West","lat":37.7669683,"lng":-122.4437158},{"title":"Dolores Park","lat":37.7597727,"lng":-122.427063},{"title":"Casa Lucas Market at 2934 24th St","lat":37.7529387,"lng":-122.4107722},{"title":"Punjab","lat":37.7749295,"lng":-122.4194155},{"title":"222 Mason St. ","lat":37.7860672,"lng":-122.4092521},{"title":"Golden Gate Bridge","lat":37.8198772,"lng":-122.4789386},{"title":"Presidio Church at 130 Fisher Loop","lat":37.7992679,"lng":-122.4618982},{"title":"Tiburon Hiking Trail, Tiburon, CA","lat":37.7749295,"lng":-122.4194155},{"title":"Fort Funston","lat":37.7155182,"lng":-122.5022167},{"title":"Fulsom Street Fair on Fulsom St.","lat":37.7749295,"lng":-122.4194155},{"title":"Orphan Andy's","lat":37.7749295,"lng":-122.4194155},{"title":"Urban Flowers","lat":37.7749295,"lng":-122.4194155},{"title":"The Stud","lat":37.7749295,"lng":-122.4194155},{"title":"Mr. S Leather","lat":"","lng":""},{"title":"2866 24th St.","lat":37.7529677,"lng":-122.4097206},{"title":"24th and Church St. ","lat":37.7517046,"lng":-122.427349},{"title":"Church and Duboce Muni Station","lat":37.7749295,"lng":-122.4194155},{"title":"St. Francis Fountain","lat":37.7238921,"lng":-122.4493259},{"title":"Muni line N- Judah","lat":37.7749295,"lng":-122.4194155},{"title":"Sutro Baths  ","lat":37.7798498,"lng":-122.5138482},{"title":"Golden Gate Park","lat":37.7694208,"lng":-122.4862138},{"title":"Market & Church St.","lat":25.7742967,"lng":81.4088167},{"title":"Willy's Barber Shop","lat":37.7749295,"lng":-122.4194155},{"title":"Jawbone at 99 Rhode Island St. ","lat":37.7689205,"lng":-122.4025612},{"title":"BART from Civic Center to 24th St.","lat":37.7525524,"lng":-122.4132704}],"release_year":"2014","production_company":"Mission Street Producitons, LLC","distributor":"Home Box Office (HBO)","actor_2":"Frankie J. Alvarez","writer":"Michael Lannan","director":"Andrew Haigh","actor_3":"Murray Bartlett","link":"looking"},"love-&-taxes":{"title":"Love & Taxes","actor_1":"Jacob Kornbluth","locations":[{"title":"20 Hill Street","lat":37.756288,"lng":-122.422018},{"title":"The Marsh Theatre (1062 Valencia Street)","lat":37.7558531,"lng":-122.4212321},{"title":"198 Gough Street","lat":37.7750315,"lng":-122.422605}],"release_year":"2011","production_company":"Bad Company Films","writer":"Jacob Kornbluth","director":"Jacob Kornbluth","actor_3":"Josh Brolin","link":"love-&-taxes"},"magnum-force":{"title":"Magnum Force","actor_1":"Clint Eastwood","locations":[{"title":"Vermont Street between 20th and 22nd Streets","lat":37.7558338,"lng":-122.4122209},{"title":"San Francisco International Airport","lat":37.615223,"lng":-122.389979},{"title":"San Francisco Drydock (20th and Illinois Streets)","lat":37.7605687,"lng":-122.387575},{"title":"Pacific Heights Towers (2200 Sacramento Street, Pacific Heights)","lat":37.790681,"lng":-122.429498},{"title":"Lefty O' Doul Drawbridge\/ 3rd Street Bridge (3rd Street, China Basin)","lat":37.7659631,"lng":-122.3891193},{"title":"Hall of Justice (850 Bryant Street)","lat":37.7754356,"lng":-122.403939},{"title":"Golden Gate Bridge","lat":37.8198772,"lng":-122.4789386},{"title":"Fairmont Hotel (950 Mason Street, Nob Hill)","lat":37.7923392,"lng":-122.4105175},{"title":"Embarcadero Freeway","lat":37.7560529,"lng":-122.3924235},{"title":"Cost Plus World Market (2552 Taylor Street)","lat":37.805808,"lng":-122.414384},{"title":"City Hall","lat":37.7793176,"lng":-122.4191405},{"title":"Broadway Tunnel (Russian Hill)","lat":37.7964329,"lng":-122.4173931},{"title":"280 Freeway at Pennsylvania and Mariposa Streets","lat":37.7089495,"lng":-122.3952172},{"title":"2190 Washington Street (Pacific Heights)","lat":37.792541,"lng":-122.429151},{"title":"18th Street Overpass (Potrero Hill)","lat":37.761467,"lng":-122.428416}],"release_year":"1973","production_company":"The Malpaso Company","distributor":"Warner Bros. Pictures","writer":"John Milius","director":"Ted Post","actor_3":"Josh Brolin","link":"magnum-force"},"marnie":{"title":"Marnie","actor_1":"Tippi Hedren","locations":[{"title":"On Board the SS President Cleveland, docked at Pier 50","lat":37.773894,"lng":-122.3848029}],"release_year":"1964","production_company":"Universal Pictures","distributor":"Universal Pictures","actor_2":"Sean Connery","writer":"Jay Presson Allen","director":"Alfred Hitchcock","actor_3":"Gary Oldman","link":"marnie"},"maxie":{"title":"Maxie","actor_1":"Glenn Close","locations":[{"title":"Grace Cathedral Episcopal Church (1100 California Street)","lat":37.7918261,"lng":-122.4131913},{"title":"Asian Art Museum (200 Larkin Street, Civic Center)","lat":37.7802622,"lng":-122.4160294},{"title":"722 Steiner Street (Postcard Row, Alamo Square, Hayes Valley)","lat":37.776454,"lng":-122.432757}],"fun_facts":"Grace Cathedral Episcopal Church is the West Coast's largest Episcopalian cathedral.","release_year":"1985","production_company":"Elsboy Entertainment","distributor":"Orion Pictures Corporation","actor_2":"Mandy Patinkin","writer":"Patricia Resnick","director":"Paul Aaron","actor_3":"Gary Oldman","link":"maxie"},"memoirs-of-an-invisible-man":{"title":"Memoirs of an Invisible Man","actor_1":"Chevy Chase","locations":[{"title":"St. Elizabeth Apartment House (901 Powell Street at Sacramento)","lat":37.793072,"lng":-122.409661}],"release_year":"1992","production_company":"Warner Bros. Pictures","distributor":"Warner Bros. Pictures","actor_2":"Daryl Hannah","writer":"Robert Collector","director":"John Carpenter","actor_3":"Gary Oldman","link":"memoirs-of-an-invisible-man"},"metro":{"title":"Metro","actor_1":"Eddie Murphy","locations":[{"title":"Bush Street at Jones","lat":37.7895596,"lng":-122.4137276}],"release_year":"1997","production_company":"Touchstone Pictures","distributor":"Buena Vista Pictures","writer":"Randy Feldman","director":"Thomas Carter","link":"metro"},"midnight-lace":{"title":"Midnight Lace","actor_1":"Doris Day","locations":[{"title":"Fairmont Hotel (950 Mason Street, Nob Hill)","lat":37.7923392,"lng":-122.4105175}],"fun_facts":"In 1945 the Fairmont hosted the United Nations Conference on International Organization as delegates arrived to draft a charter for the organization. The U.S. Secretary of State, Edward Stettinus drafted the charter in the hotel's Garden Room.","release_year":"1960","production_company":"Arwin Productions","distributor":"Universal Pictures","actor_2":"Rex Harrison","writer":"Ivan Geoff","director":"David Miller","link":"midnight-lace"},"milk":{"title":"Milk","actor_1":"Sean Penn","locations":[{"title":"Treasure Island","lat":37.8235515,"lng":-122.370648},{"title":"Market & Castro Street","lat":25.7742967,"lng":81.4088167},{"title":"Marine Fireman's Union Headquarters","lat":37.7749295,"lng":-122.4194155},{"title":"Lower Haight Street","lat":37.7712749,"lng":-122.4371285},{"title":"Grace Cathedral Episcopal Church (1100 California Street)","lat":37.7918261,"lng":-122.4131913},{"title":"Golden Gate Bridge","lat":37.8198772,"lng":-122.4789386},{"title":"El Camino Del Mar","lat":37.7857816,"lng":-122.4962215},{"title":"Duboce Park","lat":37.7694223,"lng":-122.433453},{"title":"City Hall","lat":37.7793176,"lng":-122.4191405},{"title":"Chinatown","lat":37.7941378,"lng":-122.4077914},{"title":"424 Sansome Street","lat":37.7942247,"lng":-122.4013805},{"title":"29th and Delores Street","lat":37.7438311,"lng":-122.4244862}],"fun_facts":"An artificial island, Treasure Island was created for the 1939 Golden Gate International Exposition, and is named after the novel by Robert Louis Stevenson, a one-time San Francisco resident.","release_year":"2008","production_company":"Focus Features","distributor":"Focus Features","actor_2":"Emile Hirsch","writer":"Dustin Lance Black","director":"Gus Van Sant","link":"milk"},"mission-(aka-city-of-bars)":{"title":"Mission (aka City of Bars)","actor_1":"Chris Coburn","locations":[{"title":"The 500 Club (500 Guerrero Street, Mission District)","lat":37.7630363,"lng":-122.4241888},{"title":"Mission Delores Park (Mission District)","lat":37.7597727,"lng":-122.427063}],"release_year":"2001","production_company":"NA","distributor":"NA","writer":"Loren Marsh","director":"Loren Marsh","actor_3":"Tom Arnold","link":"mission-(aka-city-of-bars)"},"mona-lisa-smile":{"title":"Mona Lisa Smile","actor_1":"Julia Roberts","release_year":"2003","production_company":"Revolution Studios","distributor":"Columbia Pictures","actor_2":"Kirsten Dunst","writer":"Lawrence Konner","director":"Mike Newell","actor_3":"Tom Arnold","link":"mona-lisa-smile","locations":[{"title":null,"lat":"","lng":""}]},"mother":{"title":"Mother","actor_1":"Albert Brooks","locations":[{"title":"Golden Gate Bridge","lat":37.8198772,"lng":-122.4789386},{"title":"Fairmont Hotel (950 Mason Street, Nob Hill)","lat":37.7923392,"lng":-122.4105175}],"fun_facts":"With 23 miles of ladders and 300,000 rivets in each tower, the Golden Gate Bridge was the world's longest span when it opened in 1937.","release_year":"1996","production_company":"Paramount Pictures","distributor":"Paramount Pictures","actor_2":"Debbie Reynolds","writer":"Albert Brooks","director":"Albert Brooks","actor_3":"Tom Arnold","link":"mother"},"mrs.-doubtfire":{"title":"Mrs. Doubtfire","actor_1":"Robin Williams","locations":[{"title":"Hancock School (940 Filbert Street)","lat":37.8007185,"lng":-122.4148445},{"title":"Danilo's Bakery (Green Street & Bannam Place)","lat":37.7749295,"lng":-122.4194155},{"title":"Chrissy Field","lat":37.8039069,"lng":-122.4640618},{"title":"520-522A Green Street at Grant Street","lat":37.7997174,"lng":-122.4074187},{"title":"516 Green Street","lat":37.7998378,"lng":-122.4078056},{"title":"1200 Washington Street at Taylor Street","lat":37.7944792,"lng":-122.4131705},{"title":"100 Embarcadero Street","lat":37.8089085,"lng":-122.41427}],"release_year":"1993","production_company":"Twentieth Century Fox Film Corporation","distributor":"Twentieth Century Fox Film Corporation","actor_2":"Sally Field","writer":"Randi Mayem Singer","director":"Chris Columbus","actor_3":"Tom Arnold","link":"mrs.-doubtfire"},"murder-in-the-first":{"title":"Murder in the First","actor_1":"Christian Slater","locations":[{"title":"Pier 7","lat":37.8001077,"lng":-122.3943664},{"title":"Palace of Fine Arts","lat":37.801456,"lng":-122.448053},{"title":"Aquatic Park (Jefferson Street)","lat":37.8074647,"lng":-122.4208864},{"title":"Alcatraz Island","lat":37.8269775,"lng":-122.4229555},{"title":"Alamo Square","lat":37.7763422,"lng":-122.4346334},{"title":"1821 Alabama St. ","lat":37.7440039,"lng":-122.41009},{"title":"Hall of Justice (850 Bryant Street)","lat":37.7754356,"lng":-122.403939},{"title":"Cameron House 920 Sacramento St. ","lat":37.7932449,"lng":-122.4084763},{"title":"Naked Lunch","lat":37.7749295,"lng":-122.4194155},{"title":"9 Calhoun Terrace","lat":37.8008095,"lng":-122.4038203},{"title":"Washington Square on Filbert & Stockton","lat":38.9071923,"lng":-77.0368707},{"title":"AT&T Park","lat":47.516231,"lng":14.550072},{"title":"China Basin on Berry St","lat":37.7733825,"lng":-122.3964267},{"title":"Kearney St. from Broadway to Pacific","lat":37.7749295,"lng":-122.4194155}],"release_year":"1995","production_company":"Warner Bros. Pictures","distributor":"Warner Bros. Pictures","actor_2":"Kevin Bacon","writer":"Dan Gordon","director":"Marc Rocco","actor_3":"Fred Astaire","link":"murder-in-the-first"},"my-reality":{"title":"My Reality","actor_1":"Marcia Kimpton","locations":[{"title":"Chouguet's (2500 Washington Street)","lat":37.7917872,"lng":-122.4345688},{"title":"3122 16th Street","lat":37.7650275,"lng":-122.422579},{"title":"500 Club (500 Guerrero)","lat":37.7630363,"lng":-122.4241888},{"title":"O'Farrell & Jones Streets","lat":33.1245734,"lng":-94.3207481},{"title":"Triton Hotel (342 Grant Street)","lat":37.7903481,"lng":-122.4054242},{"title":"Grant Avenue & Union Street","lat":37.7974931,"lng":-122.406982}],"release_year":"2011","production_company":"Dare TV","writer":"Marica Kimpton","director":"Marcia Kimpton","actor_3":"Michael Keaton","link":"my-reality"},"need-for-speed":{"title":"Need For Speed","actor_1":"Aaron Paul","locations":[{"title":"Embarcadero from Broadway to Folsom","lat":37.7749295,"lng":-122.4194155},{"title":"California St from Taylor to Powell","lat":37.7749295,"lng":-122.4194155},{"title":"Mason St from Pine to Sacramento","lat":37.7749295,"lng":-122.4194155},{"title":"Powell St. from Geary to Sacramento","lat":37.7749295,"lng":-122.4194155}],"release_year":"2014","production_company":"Need For Speed Productions, LLC","distributor":"Walt Disney Studios Motion Pictures","actor_2":"Dominic Cooper","writer":"George Gatins","director":"Scott Waugh","actor_3":"Imogen Poots","link":"need-for-speed"},"never-die-twice":{"title":"Never Die Twice","actor_1":"Claudia Christian","locations":[{"title":"Postcard Row (Alamo Square, Hayes Valley)","lat":37.7749295,"lng":-122.4194155}],"fun_facts":"The 6 Victorian homes across from Alamo Square Park are among the few Victorians to survive the Great Fire.","release_year":"2001","production_company":"Scott \/ Kelly Films","writer":"Sean A.F. Scott & Nancy L. Kelly","director":"Sean A.F. Scott","actor_3":"Courtney B. Vance","link":"never-die-twice"},"night-of-henna":{"title":"Night of Henna","actor_1":"Joyce Carlin","release_year":"2005","production_company":"Zee Films","distributor":"Illuminare Entertainment","actor_2":"Nancy Carlin","writer":"Hassan Zee","director":"Hassan Zee","link":"night-of-henna","locations":[{"title":null,"lat":"","lng":""}]},"nina-takes-a-lover":{"title":"Nina Takes a Lover","actor_1":"Laura San Giacomo","release_year":"1994","production_company":"Alan Jacobs Productions","distributor":"Columbia TriStar Home Video","writer":"Alan Jacobs","director":"Alan Jacobs","link":"nina-takes-a-lover","locations":[{"title":null,"lat":"","lng":""}]},"nine-months":{"title":"Nine Months","actor_1":"Hugh Grant","locations":[{"title":"Wasteland Store (1600 Haight Street)","lat":37.769961,"lng":-122.448967},{"title":"The Malloch Apartment Building (1360 Montgomery Street)","lat":37.8017938,"lng":-122.4043215},{"title":"Star's Caf\u00e9 (55 Golden Gate Avenue at Van Ness)","lat":37.7821997,"lng":-122.4112281},{"title":"St. Peter & Paul's Church (666 Filbert Street, Washington Square)","lat":37.8009182,"lng":-122.410111},{"title":"San Francisco General Hospital Medical Center (1001 Potrero Avenue, Potrero Hill)","lat":37.7563054,"lng":-122.4045441},{"title":"Pierce Street between Pacific & Green Streets","lat":"","lng":""},{"title":"Montgomery & Vallejo Streets","lat":32.3668052,"lng":-86.2999689},{"title":"Marathon Plaza (303 2nd Street)","lat":37.7857659,"lng":-122.3958604},{"title":"Jones Street at Bush","lat":37.7895596,"lng":-122.4137276},{"title":"Jack Kerouac Alley between Columbus & Grant Streets","lat":39.9611755,"lng":-82.9987942},{"title":"Chrissy Field","lat":37.8039069,"lng":-122.4640618},{"title":"Belli Building (722 Montgomery Street at Washington)","lat":37.7960574,"lng":-122.4033927},{"title":"Alamo Square","lat":37.7763422,"lng":-122.4346334},{"title":"60 Spear Street","lat":37.7925749,"lng":-122.3945751},{"title":"101 Henry Adams Place, 4th Floor","lat":37.7681527,"lng":-122.4034569}],"release_year":"1995","production_company":"1492 Pictures","distributor":"Twentieth Century Fox Film Corp.","actor_2":"Julianne Moore","writer":"Chris Columbus","director":"Chris Columbus","link":"nine-months"},"nine-to-five":{"title":"Nine to Five","actor_1":"Jane Fonda","locations":[{"title":"Albert S. Samuels Clock (856 Market Street between Powell and Stockton)","lat":37.7749295,"lng":-122.4194155}],"release_year":"1980","production_company":"Twentieth Century Fox Film Corporation","distributor":"Twentieth Century Fox Film Corporation","actor_2":"Lily Tomlin","writer":"Colin Higgins","director":"Colin Higgins","link":"nine-to-five"},"nora-prentiss":{"title":"Nora Prentiss","actor_1":"Ann Sheridan","locations":[{"title":"Belgravia Apartments (795 Sutter Street at Jones)","lat":37.788404,"lng":-122.41326}],"release_year":"1947","production_company":"Warner Bros. Pictures","distributor":"Warner Bros. Pictures","actor_2":"Kent Smith","writer":"N. Richard Nash","director":"Vincent Sherman","link":"nora-prentiss"},"on-the-beach":{"title":"On the Beach","actor_1":"Gregory Peck","release_year":"1959","production_company":"Stanley Kramer Productions","distributor":"United Artists","actor_2":"Ava Gardner","director":"Stanley Kramer","actor_3":"Marlo Thomas","link":"on-the-beach","locations":[{"title":null,"lat":"","lng":""}]},"on-the-road":{"title":"On the Road","actor_1":"Garrett Hedlund","locations":[{"title":"2017 23rd Street","lat":37.754504,"lng":-122.400041},{"title":"Filbert & Leavenworth Streets","lat":39.9421245,"lng":-79.8577023},{"title":"Sacramento & Montgomery Streets","lat":38.5815719,"lng":-121.4943996},{"title":"Bay Bridge","lat":37.7998279,"lng":-122.3759478}],"release_year":"2010","production_company":"SPAD Films","distributor":"IFC Films & Sundance Selects","actor_2":"Viggo Mortenson","writer":"Jack Kerouac & Jose Rivera","director":"Walter Salles","link":"on-the-road"},"pacific-heights":{"title":"Pacific Heights","actor_1":"Melanie Griffith","locations":[{"title":"Texas & 19th Streets (Potrero Hill)","lat":31.9685988,"lng":-99.9018131},{"title":"Financial District","lat":37.7945742,"lng":-122.3999445},{"title":"Chinatown","lat":37.7941378,"lng":-122.4077914}],"release_year":"1990","production_company":"Morgan Creek Productions","distributor":"Twentieth Century Fox Film Corporation","actor_2":"Matthew Modine","writer":"Daniel Pyne","director":"John Schlesinger","link":"pacific-heights"},"pal-joey":{"title":"Pal Joey","actor_1":"Rita Hayworth","locations":[{"title":"Spreckles Mansion (2080 Washington Street, Pacific Heights)","lat":37.792733,"lng":-122.427541},{"title":"Coit Tower","lat":37.8023949,"lng":-122.4058222},{"title":"Barbary Coast","lat":37.7900504,"lng":-122.3906156}],"release_year":"1957","production_company":"Columbia Pictures Corporation","distributor":"Columbia Pictures","actor_2":"Frank Sinatra","writer":"Dorothy Kingsley","director":"George Sidney","link":"pal-joey"},